id,school.name,latest.cost.attendance.academic_year,location.lat,location.lon,latest.earnings.6_yrs_after_entry.working_not_enrolled.mean_earnings,latest.earnings.6_yrs_after_entry.working_not_enrolled.std_dev,latest.earnings.6_yrs_after_entry.working_not_enrolled.overall,Std Error of Mean
459842,Herzing University-Kenosha,26772.0,42.603889,-87.857452,30100.0,20500.0,2348.0,423.06277599916046
457022,Herzing University-Toledo,26916.0,41.639266,-83.665453,30100.0,20500.0,2348.0,423.06277599916046
184694,Fairleigh Dickinson University-Florham Campus,53748.0,40.774498,-74.432121,42300.0,29100.0,1926.0,663.0783492139234
445708,Johnson & Wales University-Charlotte,44949.0,35.233502,-80.851208,33400.0,19500.0,7340.0,227.60750671213947
155627,Ottawa University-Ottawa,39744.0,38.603173,-95.26418699999999,41600.0,28800.0,1247.0,815.5662793755826
157377,Midway University,36773.0,38.146126,-84.67814200000001,34600.0,22600.0,513.0,997.8143756556664
157401,Murray State University,17948.0,36.612419,-88.323629,33100.0,22900.0,2180.0,490.4641127254466
160074,Franciscan Missionaries of Our Lady University,25763.0,30.401379,-91.110587,46400.0,23900.0,774.0,859.0677598540593
159647,Louisiana Tech University,18954.0,32.528296999999995,-92.649963,38800.0,25400.0,1597.0,635.5961509684124
159717,McNeese State University,17940.0,30.178187,-93.21722199999999,36600.0,25200.0,1809.0,592.4903173212226
161554,University of Southern Maine,21508.0,43.662863,-70.274247,35600.0,22000.0,2408.0,448.3265302665723
162584,Frostburg State University,20568.0,39.650918,-78.93429300000001,33800.0,20100.0,1523.0,515.0461032854445
165334,Clark University,51609.0,42.249987,-71.823356,38300.0,21900.0,548.0,935.5216351998532
165574,Dean College,52049.0,42.085634000000006,-71.397813,28700.0,18500.0,593.0,759.7039451766932
166027,Harvard University,64400.0,42.374471,-71.118313,91300.0,79200.0,1619.0,1968.3474286194837
166391,Lasell College,47635.0,42.342148,-71.24347,36400.0,17200.0,661.0,669.002463762596
167987,University of Massachusetts-Dartmouth,25410.0,41.62869,-71.004552,41100.0,22900.0,2972.0,420.05975989643787
168254,Western New England University,48710.0,42.115017,-72.520466,46800.0,24700.0,1005.0,779.1371678774921
168591,Alma College,48453.0,43.38004,-84.672053,36500.0,22800.0,473.0,1048.3451169074824
170967,Rochester College,28573.0,42.667521,-83.144959,35200.0,23700.0,427.0,1146.9233868351107
170301,Hope College,42379.0,42.787298,-86.102089,39200.0,23300.0,798.0,824.8110590965788
169327,Cleary University,23983.0,42.586638,-83.879987,46700.0,30800.0,349.0,1648.6862009223428
171571,Oakland University,20502.0,42.674572999999995,-83.216418,39700.0,26700.0,3872.0,429.08525131092773
173124,Bemidji State University,19540.0,47.482341,-94.874119,37000.0,21300.0,1737.0,511.0691830315731
172051,Saginaw Valley State University,19377.0,43.511759999999995,-83.96427299999999,35400.0,21600.0,2865.0,403.54450502920616
172264,Siena Heights University,34870.0,41.905623999999996,-84.01884100000001,43100.0,27500.0,991.0,873.5662897359693
174154,Herzing University-Minneapolis,25945.0,45.056259000000004,-93.366502,30100.0,20500.0,2348.0,423.06277599916046
175227,Dunwoody College of Technology,30993.0,44.972809999999996,-93.29060799999999,40700.0,22700.0,1307.0,627.8965016883282
174817,Saint Mary's University of Minnesota,42399.0,44.044736,-91.695449,42600.0,24400.0,689.0,929.5659676665404
176017,University of Mississippi,23372.0,34.365528999999995,-89.53743399999999,41300.0,40000.0,3517.0,674.4873473156775
177144,Culver-Stockton College,36938.0,40.128993,-91.529374,33700.0,16900.0,409.0,835.6512181737114
178244,Missouri Baptist University,34925.0,38.641526,-90.462586,31500.0,18900.0,658.0,736.7987109282507
178721,Park University,22013.0,39.189256,-94.679041,42200.0,27300.0,2576.0,537.8853522581862
179557,Southeast Missouri State University,18248.0,37.311107,-89.531187,31800.0,18600.0,2702.0,357.8246637773896
179867,Washington University in St Louis,67751.0,38.647929,-90.310604,63400.0,47300.0,965.0,1522.6408746518734
179894,Webster University,40955.0,38.588875,-90.345151,38200.0,27500.0,1423.0,729.0045581604362
178341,Missouri Southern State University,14419.0,37.095155,-94.461689,31300.0,23100.0,1754.0,551.5656166028409
180461,Montana State University,19441.0,45.666726000000004,-111.04881200000001,38000.0,25200.0,2677.0,487.05314855579905
181394,University of Nebraska at Omaha,17712.0,41.258769,-96.008516,38600.0,24000.0,3169.0,426.33415043345116
183044,University of New Hampshire-Main Campus,31168.0,43.135934000000006,-70.93246500000001,44900.0,25500.0,4265.0,390.46369764597443
188641,Alfred University,41421.0,42.254476000000004,-77.788106,34900.0,21700.0,713.0,812.6713866063549
186371,Rutgers University-Camden,25757.0,39.948064,-75.12224,48200.0,35700.0,11196.0,337.3935463886269
186584,Seton Hall University,51395.0,40.742336,-74.246027,48200.0,28200.0,1577.0,710.1224808838895
190044,Clarkson University,61992.0,44.662715999999996,-74.999359,56400.0,27500.0,1019.0,861.480798305378
190114,Metropolitan College of New York,29094.0,40.708706,-74.014702,33900.0,25300.0,392.0,1277.8429688585466
190567,CUNY City College,15969.0,40.819846000000005,-73.948542,36800.0,26900.0,3130.0,480.8173286336267
182281,University of Nevada-Las Vegas,17131.0,36.106047,-115.138462,39300.0,24600.0,4428.0,369.68455021364724
181464,University of Nebraska-Lincoln,22535.0,40.817598,-96.700508,39900.0,33400.0,5092.0,468.06079865046075
183071,University of New Hampshire at Manchester,19931.0,42.987209,-71.468755,44900.0,25500.0,4265.0,390.46369764597443
183974,Centenary University,45909.0,40.847640000000006,-74.83364399999999,41700.0,29400.0,793.0,1044.0246116157994
183211,Rivier University,41934.0,42.738676,-71.45626,44500.0,29100.0,539.0,1253.4257324589887
186201,Ramapo College of New Jersey,27821.0,41.080942,-74.174086,43100.0,24300.0,1745.0,581.7127167371825
187444,William Paterson University of New Jersey,23563.0,40.945254999999996,-74.200248,37300.0,22800.0,3021.0,414.8198062992089
188854,American Musical and Dramatic Academy,48758.0,40.772275,-73.987549,23300.0,16800.0,902.0,559.3788128981025
187134,The College of New Jersey,32421.0,40.268651,-74.778791,49000.0,24800.0,1505.0,639.2686851608191
190761,Dominican College of Blauvelt,39491.0,41.047419,-73.95055500000001,44200.0,28500.0,662.0,1107.6839559294722
190637,CUNY Lehman College,16480.0,40.872962,-73.895379,36700.0,22900.0,2934.0,422.77123205790633
190664,CUNY Queens College,17193.0,40.735182,-73.816098,37200.0,25600.0,3470.0,434.58549597762817
190691,CUNY York College,16334.0,40.701576,-73.796313,33600.0,23500.0,2011.0,524.0368494602671
191621,Hilbert College,28819.0,42.75464,-78.820257,33300.0,20700.0,496.0,929.4574379885602
192864,Marymount Manhattan College,49721.0,40.768786999999996,-73.959767,34000.0,24100.0,742.0,884.7388333482946
191931,Iona College,48518.0,40.925725,-73.788046,45900.0,26300.0,1199.0,759.5321416691487
193654,The New School,62175.0,40.735508,-73.997114,41300.0,33600.0,1767.0,799.3205943572749
195234,The College of Saint Rose,44004.0,42.664297,-73.786661,36400.0,19500.0,1146.0,576.0262864857064
194091,New York Institute of Technology,45169.0,40.812447,-73.6078,45500.0,37200.0,1825.0,870.7861351392114
194824,Rensselaer Polytechnic Institute,66172.0,42.729978,-73.67664599999999,66700.0,38400.0,1503.0,990.4937376436952
196024,SUNY College of Technology at Delhi,22330.0,42.269859000000004,-74.924612,33300.0,21100.0,1600.0,527.5
195544,St. Joseph's College-New York,30008.0,40.690418,-73.967664,41600.0,25100.0,1467.0,655.3279098232576
196121,SUNY College at Brockport,21217.0,43.211926,-77.947188,36200.0,23400.0,2709.0,449.5845258093033
198507,Elizabeth City State University,13169.0,36.277978000000004,-76.21404100000001,25100.0,16100.0,1100.0,485.4332647701994
199157,North Carolina Central University,19750.0,35.974237,-78.898602,28700.0,18500.0,1933.0,420.78068994737845
200785,Herzing University-Akron,27022.0,41.02817,-81.49310899999999,30100.0,20500.0,2348.0,423.06277599916046
204185,University of Mount Union,40269.0,40.905256,-81.111029,36600.0,19800.0,785.0,706.6923041457671
206622,Xavier University,49220.0,39.149547,-84.47465,44800.0,39100.0,1041.0,1211.857047015669
206695,Youngstown State University,17436.0,41.104928,-80.64659,32200.0,23100.0,3622.0,383.82897558138916
208822,George Fox University,45298.0,45.303629,-122.96749399999999,42200.0,30800.0,789.0,1096.509035943713
207582,Oral Roberts University,37123.0,36.049129,-95.952547,33600.0,25100.0,807.0,883.5618464799974
209108,Marylhurst University,29048.0,45.398436,-122.648645,47900.0,55700.0,290.0,3270.8166226968983
211352,Cabrini University,44335.0,40.056354999999996,-75.375263,36700.0,20000.0,658.0,779.6811755854505
211468,Cedar Crest College,46384.0,40.586318,-75.519221,40900.0,22000.0,560.0,929.6696802013682
209612,Pacific University,54036.0,45.521394,-123.108777,35800.0,21800.0,534.0,943.3782628492556
211088,Arcadia University,54519.0,40.092605999999996,-75.163876,36300.0,22000.0,848.0,755.4831017177896
211158,Bloomsburg University of Pennsylvania,21895.0,41.00782,-76.44784399999999,38200.0,22600.0,2922.0,418.08860724067694
212832,Gwynedd Mercy University,44187.0,40.202804,-75.23660100000001,48000.0,27800.0,818.0,972.0042057723413
213358,La Roche College,39021.0,40.568615,-80.01485100000001,35900.0,23200.0,473.0,1066.7371365023505
212115,East Stroudsburg University of Pennsylvania,23238.0,40.99599,-75.173905,35300.0,19700.0,2214.0,418.67537491159214
215062,University of Pennsylvania,66800.0,39.950928999999995,-75.19391,91200.0,80000.0,2275.0,1677.2557387550692
213598,Lincoln University,25784.0,39.807722999999996,-75.926458,26900.0,17000.0,793.0,603.6877005941698
196194,SUNY College at Oswego,22822.0,43.454287,-76.540798,35800.0,21000.0,2818.0,395.5931841585904
197151,School of Visual Arts,53689.0,40.738809,-73.982359,34800.0,27800.0,1104.0,836.681678946096
199111,University of North Carolina at Asheville,18424.0,35.617067999999996,-82.565392,30000.0,18500.0,858.0,631.5795863489999
199847,Wake Forest University,64442.0,36.133609,-80.277446,62900.0,82900.0,631.0,3300.1968917875465
200332,North Dakota State University-Main Campus,19602.0,46.893127,-96.800838,45200.0,27300.0,3797.0,443.0393981901569
203085,Heidelberg University,40412.0,41.114833000000004,-83.168387,33600.0,21700.0,561.0,916.1747180980256
204468,Notre Dame College,40166.0,41.506894,-81.51661700000001,37000.0,22200.0,693.0,843.3082658013208
207458,Oklahoma City University,43811.0,35.495271,-97.54124200000001,40700.0,28400.0,632.0,1129.6913435295367
209065,Linfield College-McMinnville Campus,52357.0,45.201173,-123.199642,52100.0,30200.0,945.0,982.4060734348567
210775,Alvernia University,43569.0,40.310028,-75.93675400000001,38500.0,22600.0,932.0,740.2876137508728
209542,Oregon State University,26189.0,44.56395,-123.274723,42700.0,36600.0,4814.0,527.5067757112427
209825,University of Portland,54114.0,45.572724,-122.72669099999999,54900.0,28700.0,960.0,926.2885169679405
214652,Pennsylvania State University-Penn State Worthington Scranton,20651.0,41.440258,-75.620583,43600.0,27400.0,22044.0,184.5463081877367
215105,The University of the Arts,55357.0,39.946017,-75.165888,26600.0,18700.0,916.0,617.865391425509
214698,Pennsylvania State University-Penn State Beaver,23639.0,40.678253999999995,-80.296235,43600.0,27400.0,22044.0,184.5463081877367
215132,University of the Sciences,54708.0,39.946412,-75.207001,74900.0,40900.0,673.0,1576.579139485526
214272,Neumann University,39766.0,39.874876,-75.440022,38800.0,24900.0,834.0,862.2164845252324
215275,University of Pittsburgh-Greensburg,24750.0,40.276447,-79.532676,44300.0,36600.0,7278.0,429.01755133906374
214768,Pennsylvania State University-Penn State Hazleton,25894.0,40.983958,-76.031061,43600.0,27400.0,22044.0,184.5463081877367
214795,Pennsylvania State University-Penn State Mont Alto,27446.0,39.842046999999994,-77.542355,43600.0,27400.0,22044.0,184.5463081877367
214625,Pennsylvania State University-Penn State New Kensington,20408.0,40.551159000000006,-79.697232,43600.0,27400.0,22044.0,184.5463081877367
215655,Robert Morris University,42015.0,40.520415,-80.210468,40400.0,23000.0,1337.0,629.0166370560823
217402,Providence College,60139.0,41.842742,-71.437446,51800.0,40700.0,980.0,1300.1138097748776
215798,Saint Vincent College,45367.0,40.29265,-79.403762,40800.0,23500.0,590.0,967.4796892713265
217518,Roger Williams University,49344.0,41.650214,-71.260374,44100.0,22500.0,1171.0,657.512586210154
219295,Presentation College,30710.0,45.483339,-98.49129,38600.0,23100.0,329.0,1273.5442252301336
217925,Columbia International University,33958.0,34.075509999999994,-81.07443,27900.0,20700.0,205.0,1445.7507122430268
219602,Austin Peay State University,20429.0,36.533319,-87.35408100000001,31400.0,20400.0,2515.0,406.7814806038085
223232,Baylor University,56701.0,31.548959999999997,-97.117641,46600.0,45800.0,2649.0,889.8657649627269
221892,Trevecca Nazarene University,34779.0,36.141324,-86.754238,40700.0,26500.0,594.0,1087.3081703174391
226152,Texas A & M International University,14516.0,27.573503999999996,-99.435225,36000.0,23100.0,1600.0,577.5
144281,Columbia College Chicago,40503.0,41.874261,-87.624667,29500.0,20500.0,4941.0,291.63955984715193
144351,Concordia University-Chicago,39036.0,41.898696,-87.80948199999999,38700.0,23200.0,540.0,998.3690403556898
146667,Lincoln Christian University,25542.0,40.148924,-89.346721,28100.0,19500.0,264.0,1200.142037048494
149231,Southern Illinois University-Edwardsville,21538.0,38.793949,-89.99777900000001,39600.0,25200.0,3372.0,433.96705190052313
148627,Saint Xavier University,38260.0,41.707198999999996,-87.714749,41400.0,23800.0,1227.0,679.4455767525028
148654,University of Illinois at Springfield,23469.0,39.729524,-89.616796,38500.0,26000.0,951.0,843.107765663178
147244,Millikin University,43149.0,39.842612,-88.976298,34900.0,19800.0,905.0,658.1742703613883
148487,Roosevelt University,43029.0,41.876055,-87.62495200000001,39700.0,26600.0,1825.0,622.6589030834147
151801,Indiana Wesleyan University-Marion,36050.0,40.517936999999996,-85.667503,47700.0,29300.0,4952.0,416.3679597033473
151111,Indiana University-Purdue University-Indianapolis,20451.0,39.772948,-86.172217,39900.0,25100.0,7281.0,294.1563350626535
150534,University of Evansville,45967.0,37.971548999999996,-87.531644,40700.0,22300.0,770.0,803.6362167244386
151351,Indiana University-Bloomington,24432.0,39.166090000000004,-86.52655899999999,44200.0,29100.0,7496.0,336.1074972879823
150677,Grace College and Theological Seminary,32113.0,41.22595,-85.814228,32500.0,19600.0,435.0,939.7480709113529
152567,Trine University,46575.0,41.632502,-85.008009,40000.0,22600.0,869.0,766.6524906546169
153001,Buena Vista University,43514.0,42.642255,-95.208529,36000.0,19800.0,1413.0,526.7373437486307
153834,Luther College,51165.0,43.312304,-91.802809,38400.0,21200.0,694.0,804.7409950811907
155414,Kansas Wesleyan University,39742.0,38.813795,-97.607973,36000.0,21200.0,403.0,1056.0472205398419
155061,Fort Hays State University,16251.0,38.872156,-99.34250300000001,36800.0,22100.0,2205.0,470.63906954995576
155681,Pittsburg State University,17292.0,37.392071,-94.702473,37900.0,21500.0,2052.0,474.624094614974
155317,University of Kansas,23687.0,38.958549,-95.247567,45100.0,45500.0,5342.0,622.5288098205039
157447,Northern Kentucky University,16855.0,39.029714,-84.463483,35200.0,21900.0,3489.0,370.7606459399595
157951,Western Kentucky University,18309.0,36.985034999999996,-86.456828,30800.0,23200.0,4865.0,332.6186239879514
157757,Spalding University,34354.0,38.242407,-85.757725,38000.0,22600.0,437.0,1081.104613510964
160621,Southern University and A & M College,19955.0,30.524558000000003,-91.190105,30800.0,20100.0,1581.0,505.5104321019962
159391,Louisiana State University and Agricultural & Mechanical College,24441.0,30.414986,-91.178921,45000.0,39600.0,3786.0,643.5834701441524
161341,University of Maine at Presque Isle,16754.0,46.672284999999995,-68.016343,27600.0,16400.0,355.0,870.4216235922114
161457,University of New England,51270.0,43.458591,-70.38535,41200.0,27800.0,870.0,942.5082700329265
162007,Bowie State University,20885.0,39.018184999999995,-76.759721,34200.0,20700.0,1411.0,551.0700884472772
164447,American International College,45655.0,42.112708000000005,-72.55850699999999,41700.0,25000.0,786.0,891.7204687580271
165671,Emmanuel College,53199.0,42.340602000000004,-71.103634,39500.0,20900.0,728.0,774.6055359108507
163851,Salisbury University,23447.0,38.34648,-75.604815,40000.0,21800.0,2155.0,469.6051557640585
165024,Bridgewater State University,21344.0,41.98749,-70.974553,37500.0,20400.0,2893.0,379.2765139588637
100654,Alabama A & M University,22667.0,34.783367999999996,-86.568502,28400.0,24000.0,1304.0,664.6185307460536
102377,Tuskegee University,36457.0,32.4309,-85.708492,34500.0,26700.0,823.0,930.703492791626
100724,Alabama State University,19242.0,32.364317,-86.295677,24400.0,15900.0,1754.0,379.6490607785788
101587,University of West Alabama,18533.0,32.588132,-88.186329,29700.0,20600.0,845.0,708.6615436383948
102094,University of South Alabama,19511.0,30.696033,-88.17871099999999,35100.0,24100.0,3199.0,426.09841874503337
106467,Arkansas Tech University,17731.0,35.293237,-93.13561999999999,31600.0,21400.0,2481.0,429.63572958617107
107141,John Brown University,36782.0,36.189811999999996,-94.560283,45300.0,39100.0,686.0,1492.8449369679704
107877,Williams Baptist College,26649.0,36.125676,-90.94027700000001,29300.0,16900.0,232.0,1109.5393576646557
123554,Saint Mary's College of California,61095.0,37.840731,-122.109031,48600.0,33600.0,845.0,1155.8751391383528
123457,Simpson University,37437.0,40.61331,-122.333048,35100.0,25700.0,535.0,1111.1078919994904
127741,University of Northern Colorado,21640.0,40.410855,-104.692777,35300.0,20300.0,2939.0,374.4520778756379
126614,University of Colorado Boulder,31393.0,40.008781,-105.270823,42700.0,28400.0,5113.0,397.17366430399613
130697,Wesleyan University,65443.0,41.554665,-72.657146,46400.0,44000.0,445.0,2085.8000378158995
138947,Clark Atlanta University,36988.0,33.747628000000006,-84.412584,28400.0,18300.0,1261.0,515.3396360880795
143084,Augustana College,50400.0,41.502365000000005,-90.55057,41100.0,21500.0,698.0,813.7870014122994
141574,University of Hawaii at Manoa,22153.0,21.298598000000002,-157.818979,39000.0,28500.0,3137.0,508.8474478811639
140951,Savannah College of Art and Design,53657.0,32.072963,-81.093849,32700.0,23600.0,2622.0,460.88827445005916
141264,Valdosta State University,21191.0,30.847402000000002,-83.289282,33200.0,20500.0,3077.0,369.56438620910313
141334,University of West Georgia,21242.0,33.573621,-85.097762,33900.0,20800.0,3199.0,367.752992111896
145637,University of Illinois at Urbana-Champaign,29764.0,40.104718,-88.229114,52300.0,41500.0,6373.0,519.8477127365961
148584,University of St Francis,39175.0,41.532225,-88.096057,47100.0,25600.0,651.0,1003.3431061371143
147767,Northwestern University,67887.0,42.050356,-87.679858,71900.0,58100.0,1845.0,1352.6266728070832
148131,Quincy University,39686.0,39.938897999999995,-91.385975,34200.0,19500.0,535.0,843.058517275878
149781,Wheaton College,45154.0,41.870176,-88.099643,39600.0,26800.0,482.0,1220.7065500470621
153621,Iowa Wesleyan University,40996.0,40.973791,-91.552459,32700.0,18800.0,417.0,920.6399609238565
128771,Central Connecticut State University,21706.0,41.692502000000005,-72.765991,40800.0,24700.0,2850.0,462.6733909213568
132471,Barry University,44430.0,25.878908,-80.198925,43700.0,29600.0,1831.0,691.7474054635786
134097,Florida State University,21938.0,30.440756,-84.291921,39700.0,32300.0,6879.0,389.4393822117924
137351,University of South Florida-Main Campus,19652.0,28.061458000000002,-82.413232,39400.0,27400.0,10002.0,273.9726041093151
140447,Mercer University,48766.0,32.831787,-83.64829499999999,40400.0,25900.0,1492.0,670.5255831366545
141644,Hawaii Pacific University,38052.0,21.310306,-157.859645,41800.0,30000.0,1313.0,827.9209869913225
142461,Northwest Nazarene University,37621.0,43.562411,-116.56578300000001,35000.0,23400.0,549.0,998.6876634765887
141167,Thomas University,28432.0,30.815576,-83.963587,38700.0,52000.0,352.0,2771.6093126229357
141981,University of Hawaii-West Oahu,14526.0,21.35531,-158.056403,38300.0,20000.0,326.0,1107.6975512434226
141237,Truett McConnell University,29321.0,34.596306,-83.74891099999999,25900.0,18300.0,205.0,1278.1274412583282
156541,University of the Cumberlands,36305.0,36.737048,-84.16164599999999,28500.0,18000.0,609.0,729.396808625797
160904,Xavier University of Louisiana,32796.0,29.964161999999998,-90.10730699999999,46700.0,54900.0,751.0,2003.3294523884294
162654,Goucher College,56729.0,39.410175,-76.59484300000001,31800.0,21000.0,344.0,1132.2441186361034
164924,Boston College,65595.0,42.336213,-71.16924200000001,64900.0,46600.0,1802.0,1097.762834515501
164641,Bay State College,37464.0,42.35176,-71.076991,30600.0,18600.0,610.0,753.0919870663919
168227,Wentworth Institute of Technology,49642.0,42.336632,-71.094983,54200.0,26000.0,1498.0,671.7651061274424
166674,Massachusetts College of Art and Design,27638.0,42.336861999999996,-71.099275,31200.0,19400.0,571.0,811.8647321182532
167251,Newbury College,43808.0,42.331032,-71.14208199999999,32600.0,18800.0,455.0,881.3575941643713
170037,Cornerstone University,37172.0,42.979966,-85.59532800000001,37500.0,29300.0,774.0,1053.1667516202485
171137,University of Michigan-Dearborn,18832.0,42.317287,-83.23141700000001,41800.0,27800.0,1780.0,658.9231937645683
172334,Spring Arbor University,36746.0,42.206568,-84.556074,38800.0,26700.0,1261.0,751.8889772432634
172644,Wayne State University,22276.0,42.358994,-83.068998,37900.0,29300.0,5191.0,406.6699720799229
173647,Gustavus Adolphus College,52768.0,44.323626000000004,-93.972196,43400.0,24400.0,678.0,937.0763546239336
174251,University of Minnesota-Morris,23319.0,45.589828999999995,-95.901756,34900.0,18800.0,494.0,845.8519888517934
174844,St Olaf College,54630.0,44.461529,-93.182039,41500.0,25600.0,620.0,1028.1207409951985
174437,North Central University,32289.0,44.968625,-93.261511,29700.0,16800.0,476.0,770.0267375036975
174914,University of St Thomas,50515.0,44.943439,-93.188986,48600.0,26300.0,1741.0,630.3131430030548
174491,University of Northwestern-St Paul,40638.0,45.033703,-93.167822,35200.0,20000.0,1005.0,630.8802978765118
175421,Belhaven University,32528.0,32.318415,-90.169228,34900.0,23200.0,953.0,751.5217161344149
176044,Mississippi Valley State University,20347.0,33.514142,-90.341274,22500.0,15600.0,837.0,539.2148812598211
177214,Drury University,35054.0,37.219681,-93.286192,30400.0,22000.0,1426.0,582.5898554656137
176947,Central Methodist University-College of Liberal Arts and Sciences,35660.0,39.150496999999994,-92.685253,35000.0,25600.0,899.0,853.8078028352897
178624,Northwest Missouri State University,18226.0,40.351692,-94.883339,34000.0,19100.0,2197.0,407.49129799622597
106397,University of Arkansas,21817.0,36.070009000000006,-94.17698100000001,40900.0,30400.0,3365.0,524.0600444256814
104151,Arizona State University-Tempe,23931.0,33.417721,-111.93438300000001,42200.0,29100.0,15223.0,235.8537931823936
106704,University of Central Arkansas,20052.0,35.077945,-92.457672,32600.0,21600.0,2671.0,417.94276073908964
107044,Harding University,27627.0,35.247337,-91.72604100000001,35600.0,22000.0,1155.0,647.3388749701496
110097,Biola University,48857.0,33.906203000000005,-118.014374,38700.0,37400.0,1237.0,1063.3757506476632
110617,California State University-Sacramento,18535.0,38.559415,-121.423549,41800.0,26500.0,7233.0,311.5922457912236
110644,University of California-Davis,33904.0,38.539667,-121.749567,45300.0,31400.0,6226.0,397.946867009172
110671,University of California-Riverside,31494.0,33.97246,-117.32741000000001,36800.0,25400.0,4833.0,365.36363469511394
110714,University of California-Santa Cruz,34608.0,36.995584,-122.058801,38400.0,28500.0,3968.0,452.4379524381786
114354,FIDM-Fashion Institute of Design & Merchandising-Los Angeles,46291.0,34.044209,-118.25993000000001,37300.0,27400.0,3305.0,476.6118444047828
117751,The Master's University and Seminary,43846.0,34.381755,-118.518193,38600.0,28900.0,376.0,1490.4037008439564
120184,Notre Dame de Namur University,50415.0,37.517501,-122.284618,49000.0,39400.0,388.0,2000.2319453132297
120254,Occidental College,67046.0,34.126224,-118.210783,40700.0,25600.0,308.0,1458.6953786833656
122454,San Francisco Art Institute,65453.0,37.803575,-122.417,28400.0,22300.0,127.0,1978.8050159979339
123961,University of Southern California,67064.0,34.021281,-118.28416899999999,61400.0,63200.0,3564.0,1058.6398320730366
129941,University of New Haven,51801.0,41.291314,-72.961472,40500.0,22200.0,1485.0,576.089218679527
128391,Western State Colorado University,21431.0,38.549436,-106.91843899999999,32500.0,22300.0,762.0,807.8437649424736
130794,Yale University,66445.0,41.311158,-72.926688,67800.0,53400.0,730.0,1976.422671227606
128744,University of Bridgeport,50082.0,41.164741,-73.190166,35600.0,23700.0,935.0,775.0728790987583
129774,Mitchell College,45364.0,41.328013,-72.09523,28200.0,18400.0,389.0,932.9170328766446
132657,Lynn University,51585.0,26.385984999999998,-80.12280600000001,38600.0,36000.0,424.0,1748.3145522430755
133711,Flagler College-St Augustine,30334.0,29.892733000000003,-81.314887,34900.0,22400.0,1151.0,660.2529594484747
133881,Florida Institute of Technology,55984.0,28.065815,-80.622893,46900.0,43300.0,1950.0,980.55191156922
133951,Florida International University,18873.0,25.75732,-80.373928,41500.0,31100.0,7426.0,360.89670469130476
137564,Southeastern University,33954.0,28.029733,-81.918382,31200.0,20200.0,1063.0,619.5619488530618
137847,The University of Tampa,40897.0,27.948455,-82.46483,42300.0,28700.0,1598.0,717.948858348563
136774,Ringling College of Art and Design,58729.0,27.360931,-82.547803,36000.0,27800.0,473.0,1278.245361843334
138354,The University of West Florida,17219.0,30.549076,-87.21851099999999,33600.0,20800.0,2522.0,414.18159272543403
139144,Berry College,45873.0,34.290414,-85.18920200000001,32300.0,18300.0,464.0,849.5561721600124
139764,Georgia Southwestern State University,19297.0,32.054662,-84.217738,32900.0,22600.0,891.0,757.128487495273
139861,Georgia College & State University,26856.0,33.082786999999996,-83.231962,37500.0,22000.0,1488.0,570.3234321017339
139931,Georgia Southern University,22417.0,32.428808000000004,-81.782232,36800.0,26000.0,4483.0,388.3193021692422
139311,Clayton  State University,17241.0,33.594079,-84.328174,35900.0,23900.0,2038.0,529.4144746478263
179964,William Woods University,36808.0,38.860287,-91.950416,33100.0,19300.0,502.0,861.4011563674819
191241,Fordham University,63109.0,40.859353999999996,-73.882705,53600.0,45500.0,2079.0,997.8934040223164
190594,CUNY Hunter College,18107.0,40.768669,-73.964795,39300.0,28300.0,3355.0,488.58504911995306
193584,Nazareth College,46041.0,43.101576,-77.518579,39500.0,27000.0,797.0,956.3890684173496
194161,Nyack College,37386.0,41.081957,-73.927863,38500.0,30800.0,947.0,1000.8655177309754
195474,Siena College,50481.0,42.717602,-73.7526,46000.0,24100.0,1121.0,719.8039677628461
196051,Morrisville State College,24159.0,42.893962,-75.64058299999999,29800.0,19600.0,1939.0,445.109810813366
196097,Stony Brook University,22988.0,40.91476,-73.12046,44000.0,31500.0,3859.0,507.07612692476454
197911,Barton College,41748.0,35.734376,-77.91386700000001,31800.0,18400.0,496.0,826.1843893231646
197984,Belmont Abbey College,31593.0,35.260651,-81.041315,34600.0,22000.0,692.0,836.314513396676
196237,SUNY College at Old Westbury,18627.0,40.799021,-73.571907,37200.0,24400.0,1061.0,749.0867830115304
198464,East Carolina University,20567.0,35.607186,-77.368291,37300.0,27600.0,5912.0,358.956539184069
198561,Gardner-Webb University,41020.0,35.24732,-81.668141,35100.0,22100.0,1092.0,668.7764235990268
199281,University of North Carolina at Pembroke,17625.0,34.688313,-79.200347,28900.0,18000.0,1775.0,427.2413969497872
201548,Capital University,45065.0,39.954875,-82.937867,36400.0,20600.0,983.0,657.0379600727817
201645,Case Western Reserve University,61371.0,41.507419,-81.609596,69900.0,53300.0,1451.0,1399.2441594592563
201195,Baldwin Wallace University,42428.0,41.373017,-81.85114499999999,39100.0,26200.0,1240.0,744.0300028636549
201885,University of Cincinnati-Main Campus,26683.0,39.131159000000004,-84.51428,39600.0,29800.0,8863.0,316.53802581554913
203128,Hiram College,44396.0,41.3107,-81.14398100000001,36300.0,23300.0,480.0,1063.4946324891976
203368,John Carroll University,51068.0,41.491321,-81.531338,40500.0,23700.0,920.0,781.3658609740075
203775,Malone University,40045.0,40.825662,-81.376863,39800.0,26700.0,912.0,884.1253483409167
204635,Ohio Northern University,43558.0,40.7662,-83.82744100000001,59600.0,36400.0,923.0,1198.1205939914723
203845,Marietta College,46793.0,39.41668,-81.45004499999999,45400.0,38000.0,542.0,1632.2397624327195
206048,Tiffin University,35055.0,41.118316,-83.184197,36600.0,40700.0,935.0,1331.0323282413276
206525,Wittenberg University,49930.0,39.934028999999995,-83.815445,37800.0,19700.0,549.0,840.7755115593503
206835,Oklahoma Wesleyan University,35827.0,36.717453000000006,-95.95671,50500.0,33200.0,491.0,1498.2950255896603
207722,University of Science and Arts of Oklahoma,17212.0,35.031392,-97.95640999999999,30400.0,22900.0,415.0,1124.1167885130387
208488,Concordia University-Portland,38473.0,45.570197,-122.636941,44600.0,30400.0,549.0,1297.4403833200126
207865,Southwestern Oklahoma State University,18125.0,35.535281,-98.707768,39400.0,29500.0,1512.0,758.6581373136186
207388,Oklahoma State University-Main Campus,22059.0,36.123084999999996,-97.069743,42600.0,32500.0,4562.0,481.1779532660843
215442,Point Park University,40466.0,40.438767999999996,-80.002061,32800.0,21800.0,1567.0,550.7087734537215
216038,Slippery Rock University of Pennsylvania,23095.0,41.062719,-80.045965,36300.0,21200.0,2970.0,389.0071970113141
217165,Bryant University,56147.0,41.920092,-71.539547,58900.0,29800.0,1224.0,851.7763062077939
217235,Johnson & Wales University-Providence,45407.0,41.819956,-71.41277,33400.0,19500.0,7340.0,227.60750671213947
216852,Widener University,55342.0,39.861689,-75.355363,47500.0,27700.0,1250.0,783.4743135546946
218645,University of South Carolina-Aiken,21724.0,33.572703999999995,-81.767612,34200.0,21000.0,917.0,693.4810960180178
217688,Charleston Southern University,36060.0,32.983047,-80.072587,32400.0,20200.0,1089.0,612.1212121212121
219082,Dakota State University,19017.0,44.013014,-97.11335799999999,35400.0,19000.0,684.0,726.4831572567789
218742,University of South Carolina-Upstate,22195.0,34.996403,-81.97058299999999,36400.0,22000.0,1951.0,498.0742000593245
218238,Limestone College,38714.0,35.057076,-81.64916099999999,34900.0,21800.0,1118.0,651.9819789644913
217882,Clemson University,27722.0,34.679381,-82.835114,48100.0,48600.0,2917.0,899.8457186926181
220598,Lane College,20154.0,35.627378,-88.806535,21500.0,13000.0,1032.0,404.67232413704875
219718,Bethel University,28832.0,36.137848,-88.516762,37800.0,26400.0,1332.0,723.355544143572
220862,University of Memphis,21761.0,35.118878,-89.938068,35100.0,31300.0,4192.0,483.43011446590606
220978,Middle Tennessee State University,20186.0,35.848005,-86.360618,33600.0,25600.0,6701.0,312.7304403303388
222178,Abilene Christian University,44404.0,32.468942999999996,-99.709797,38900.0,31300.0,1174.0,913.503654478824
221768,The University of Tennessee-Martin,18755.0,36.340338,-88.864211,30800.0,18700.0,2164.0,401.98789766684513
224545,Texas A&M University-Texarkana,16871.0,33.490482,-94.103617,34800.0,20500.0,419.0,1001.4905359293646
225432,University of Houston-Downtown,16555.0,29.7661,-95.359338,42500.0,28600.0,3761.0,466.35256138772894
225548,Howard Payne University,36209.0,31.716466999999998,-98.98520400000001,34000.0,24200.0,521.0,1060.221249498743
227368,The University of Texas Rio Grande Valley,14181.0,26.306759000000003,-98.173567,34200.0,23900.0,4949.0,339.7341263716963
227845,Saint Edward's University,52247.0,30.229844,-97.75763,41200.0,27500.0,1347.0,749.2882046715971
228875,Texas Christian University,58040.0,32.709568,-97.361537,50300.0,46900.0,1516.0,1204.5455903184707
228468,Southwestern Adventist University,29691.0,32.397617,-97.32701999999999,39000.0,26700.0,237.0,1734.3513725725545
229018,The University of Texas of the Permian Basin,15290.0,31.889509000000004,-102.329634,44800.0,34300.0,981.0,1095.1147194361831
228042,Schreiner University,35338.0,30.031458,-99.130586,35400.0,23000.0,475.0,1055.312375804584
236452,Saint Martin's University,45784.0,47.041068,-122.816354,41000.0,32000.0,457.0,1496.8968631199616
238032,West Virginia University,19512.0,39.634371,-79.954391,39300.0,33100.0,7217.0,389.6275351974113
239318,Milwaukee School of Engineering,47607.0,43.045364,-87.907691,58800.0,24700.0,1000.0,781.0825820615897
240268,University of Wisconsin-Eau Claire,19334.0,44.798284,-91.501906,40200.0,20400.0,2942.0,376.10476287605786
241395,Pontifical Catholic University of Puerto Rico-Arecibo,10971.0,18.446006,-66.679114,17700.0,15800.0,1329.0,433.40567781823825
386472,Herzing University-Winter Park,27532.0,28.615784,-81.312669,30100.0,20500.0,2348.0,423.06277599916046
409698,California State University-Monterey Bay,19754.0,36.652397,-121.796178,35100.0,23400.0,1505.0,603.1809368049664
421832,Living Arts College,28439.0,35.942892,-78.555726,24700.0,15400.0,396.0,773.8791177495933
230995,Norwich University,52582.0,44.140237,-72.65978299999999,42400.0,21300.0,756.0,774.6735103377729
231712,Christopher Newport University,27435.0,37.062495,-76.494364,39300.0,22800.0,1168.0,667.1345390179442
230728,Utah State University,18093.0,41.740747999999996,-111.81391,37400.0,31600.0,4359.0,478.62309204102996
231165,Vermont Technical College,25083.0,43.939623,-72.60449799999999,42600.0,21300.0,880.0,718.0228535233529
232672,Mary Baldwin University,41977.0,38.153884000000005,-79.069273,30800.0,22000.0,560.0,929.6696802013682
230852,Champlain College,55015.0,44.473287,-73.20274599999999,42200.0,26900.0,996.0,852.3591169554228
232265,Hampton University,37162.0,37.019944,-76.339161,37700.0,34800.0,1385.0,935.0920339267988
236595,Seattle University,56391.0,47.608859,-122.318851,48100.0,27800.0,1367.0,751.900785685362
237215,Bluefield State College,15425.0,37.265732,-81.239037,29600.0,21000.0,692.0,798.3002173331907
237932,West Liberty University,20373.0,40.164417,-80.60225600000001,30600.0,20500.0,999.0,648.591297097541
236948,University of Washington-Seattle Campus,25520.0,47.65538,-122.30514,50300.0,37900.0,8280.0,416.5086656950055
237525,Marshall University,18064.0,38.422482,-82.42896400000001,32700.0,28100.0,2420.0,571.2137287976735
239105,Marquette University,51316.0,43.03903,-87.927961,54000.0,37800.0,1982.0,849.0631151817033
240462,University of Wisconsin-Platteville,18316.0,42.733451,-90.48621999999999,41300.0,20300.0,2354.0,418.4010913430357
238458,Carroll University,41758.0,43.004527,-88.228114,40200.0,19600.0,1062.0,601.4420836935712
240365,University of Wisconsin-Oshkosh,18143.0,44.026206,-88.549369,37900.0,19200.0,3298.0,334.33042704055254
240392,Herzing University-Madison,27731.0,43.14415,-89.291561,30100.0,20500.0,2348.0,423.06277599916046
243665,University of the Virgin Islands,17288.0,18.344193,-64.972866,27000.0,20000.0,540.0,860.6629658238704
241225,Universidad Central de Bayamon,12125.0,18.398864,-66.180773,18900.0,17600.0,443.0,836.2012351362207
243832,EDP University of Puerto Rico Inc-San Juan,12884.0,18.415375,-66.055403,19100.0,16300.0,848.0,559.7442980909078
377555,University of Washington-Bothell Campus,22515.0,47.759772999999996,-122.19129299999999,50300.0,37900.0,8280.0,416.5086656950055
439288,Johnson & Wales University-Denver,43277.0,39.746101,-104.906281,33400.0,19500.0,7340.0,227.60750671213947
436818,University of Connecticut-Waterbury Campus,15310.0,41.555617,-73.039242,49800.0,40400.0,5223.0,559.0122850409712
100751,The University of Alabama,28422.0,33.211875,-87.545978,42400.0,53500.0,4836.0,769.3264001763305
102614,University of Alaska Fairbanks,16694.0,64.85755999999999,-147.823146,36500.0,30500.0,1138.0,904.1254792613472
104717,Grand Canyon University,31156.0,33.513231,-112.129929,36000.0,30900.0,11512.0,287.993767305734
107071,Henderson State University,20112.0,34.128155,-93.059703,29300.0,19500.0,1198.0,563.3861967405629
110361,California Baptist University,41826.0,33.929321,-117.425619,40000.0,28800.0,1278.0,805.6141039648215
109651,Art Center College of Design,61420.0,34.169031,-118.185102,48800.0,39800.0,506.0,1769.3258134080604
111081,California Institute of the Arts,64686.0,34.39327,-118.566837,34200.0,30900.0,357.0,1635.401423237136
110547,California State University-Dominguez Hills,13027.0,33.864765999999996,-118.255917,38300.0,29500.0,3416.0,504.73460923650174
110574,California State University-East Bay,20303.0,37.657070000000004,-122.058073,45200.0,32200.0,3643.0,533.4900035234555
120537,Hope International University,38570.0,33.87616,-117.88573000000001,36600.0,42000.0,308.0,2393.1721056523966
122931,Santa Clara University,62964.0,37.348362,-121.93784,63900.0,41700.0,1006.0,1314.731488434015
123651,Vanguard University of Southern California,42564.0,33.662686,-117.90091100000001,40700.0,29300.0,696.0,1110.6136338430933
121691,University of Redlands,61542.0,34.064218,-117.163218,48700.0,34500.0,1124.0,1029.0487263190164
122597,San Francisco State University,22396.0,37.721345,-122.477905,42100.0,29100.0,6657.0,356.65942946388924
125897,Woodbury University,48733.0,34.208011,-118.34114699999999,37300.0,26400.0,454.0,1239.0133917847807
230898,Green Mountain College,47180.0,43.517784999999996,-73.241862,25200.0,15300.0,340.0,829.7590011563599
234155,Virginia State University,21453.0,37.236453000000004,-77.419886,29000.0,17100.0,1901.0,392.1977085720327
232982,Old Dominion University,22806.0,36.886418,-76.30666,38300.0,26700.0,5333.0,365.61623282050317
237792,Shepherd University,17055.0,39.433071000000005,-77.804101,34400.0,24400.0,1178.0,710.9141870326393
237312,University of Charleston,36823.0,38.333366999999996,-81.616244,39100.0,31000.0,403.0,1544.2199922988254
237358,Davis & Elkins College,39080.0,38.931232,-79.84602199999999,30100.0,21200.0,247.0,1348.9236975086487
237385,Glenville State College,20962.0,38.93547,-80.834295,27900.0,20900.0,526.0,911.28330521162
236328,University of Puget Sound,59721.0,47.26308,-122.478982,40200.0,24300.0,682.0,930.4950909969925
368452,Nossi College of Art,25080.0,36.24334,-86.73852099999999,24400.0,17000.0,299.0,983.1353843426084
230038,Brigham Young University-Provo,17395.0,40.250851000000004,-111.649281,46600.0,37400.0,6075.0,479.84222372648895
228705,Texas A & M University-Kingsville,20851.0,27.525168,-97.882387,39500.0,27000.0,2445.0,546.0398421383316
228325,Southwestern Assemblies of God University,33736.0,32.40443,-96.853492,30400.0,20800.0,693.0,790.1266634534898
228778,The University of Texas at Austin,26098.0,30.282825,-97.73827299999999,52200.0,41700.0,7360.0,486.0681312952636
228802,The University of Texas at Tyler,17917.0,32.315771999999996,-95.25433699999999,42900.0,26500.0,1695.0,643.6666720133699
229115,Texas Tech University,22112.0,33.583448,-101.874783,46800.0,30500.0,6162.0,388.5429134418086
220075,East Tennessee State University,22439.0,36.301643,-82.366954,32700.0,24700.0,3379.0,424.915777738432
219578,Aquinas College,30764.0,36.132187,-86.84421400000001,43100.0,25800.0,354.0,1371.2545289080535
220215,Freed-Hardeman University,33653.0,35.440073,-88.639418,31500.0,19300.0,558.0,817.0341503678923
459851,Herzing University-Brookfield,26433.0,43.027347,-88.115656,30100.0,20500.0,2348.0,423.06277599916046
441937,California State University-Channel Islands,23323.0,34.162949,-119.04356000000001,38100.0,24800.0,1067.0,759.2232009040574
217907,Coker College,36370.0,34.37696,-80.07041600000001,29300.0,18900.0,408.0,935.6894281129572
218414,Newberry College,39896.0,34.285868,-81.619777,32900.0,31300.0,488.0,1416.8844255654149
219347,South Dakota School of Mines and Technology,23570.0,44.075439,-103.205753,56400.0,33000.0,439.0,1575.0040676810472
220631,Lincoln Memorial University,35102.0,36.578508,-83.660198,34300.0,22300.0,822.0,777.8018186528988
222831,Angelo State University,18074.0,31.440914000000003,-100.465051,36100.0,23400.0,2070.0,514.3167692487139
221731,Tennessee Wesleyan University,30363.0,35.446331,-84.59272800000001,34300.0,20000.0,486.0,907.218423253029
224004,Concordia University Texas,40836.0,30.420952000000003,-97.836247,41200.0,25900.0,498.0,1160.606751715892
221847,Tennessee Technological University,23109.0,36.174659000000005,-85.503957,35400.0,23000.0,2671.0,445.03164337958617
221971,Union University,47458.0,35.676896,-88.858524,40900.0,29300.0,832.0,1015.7947343374509
228501,Sul Ross State University,20241.0,30.363139,-103.65146899999999,34600.0,22500.0,812.0,789.595207136546
228787,The University of Texas at Dallas,23211.0,32.984673,-96.749702,47800.0,31500.0,2800.0,595.294044989533
231651,Regent University,28082.0,36.801173,-76.194627,34800.0,27300.0,586.0,1127.7526052138176
231581,Bridgewater College,45705.0,38.378484,-78.96900699999999,34900.0,19300.0,594.0,791.8885919670405
231624,College of William and Mary,33630.0,37.269489,-76.708214,47400.0,32200.0,967.0,1035.4821926287736
235024,Cornish College of the Arts,52415.0,47.618173999999996,-122.336238,28000.0,20100.0,362.0,1056.4325457675498
234164,Virginia Union University,28741.0,37.562405,-77.450903,23800.0,14200.0,513.0,626.945315677454
233897,The University of Virginia's College at Wise,21138.0,36.971468,-82.558728,30000.0,17400.0,583.0,720.6343689094465
234827,Central Washington University,21732.0,47.002687,-120.53836799999999,38900.0,22700.0,3507.0,383.31690620757286
233921,Virginia Polytechnic Institute and State University,24855.0,37.229012,-80.423675,50400.0,29900.0,5611.0,399.16371319805376
233277,Radford University,21851.0,37.136914000000004,-80.54973100000001,37700.0,20200.0,2610.0,395.394947806567
233374,University of Richmond,61337.0,37.577393,-77.53880600000001,51900.0,37500.0,671.0,1447.671443404093
236577,Seattle Pacific University,51149.0,47.650214,-122.361667,40900.0,34600.0,1018.0,1084.4317135964952
237367,Fairmont State University,15843.0,39.483079,-80.162433,30500.0,22500.0,2091.0,492.0457689457823
363934,University of Advancing Technology,36028.0,33.377712,-111.976087,40500.0,30600.0,522.0,1339.32561516917
366711,California State University-San Marcos,18070.0,33.130569,-117.15901299999999,40500.0,25500.0,2675.0,493.03560941328846
367194,McNally Smith College of Music,39149.0,44.949678000000006,-93.09755600000001,27000.0,17400.0,358.0,919.6185752921405
377564,University of Washington-Tacoma Campus,22047.0,47.244594,-122.43854099999999,50300.0,37900.0,8280.0,416.5086656950055
436827,University of Connecticut-Avery Point,15225.0,41.316419,-72.065336,49800.0,40400.0,5223.0,559.0122850409712
233611,Southern Virginia University,26864.0,37.740368,-79.35037,29900.0,27400.0,286.0,1620.1959650100864
175342,Alcorn State University,21664.0,31.877215999999997,-91.142854,26900.0,19300.0,897.0,644.4082435788816
177542,Hannibal-LaGrange University,31661.0,39.729015000000004,-91.39094,31600.0,20100.0,459.0,938.1876562987666
176318,Rust College,16093.0,34.776862,-89.446999,20900.0,15600.0,418.0,763.0209413494489
176372,University of Southern Mississippi,20469.0,31.32661,-89.331236,33500.0,27300.0,3931.0,435.42275880548516
190512,CUNY Bernard M Baruch College,16688.0,40.740238,-73.983417,47500.0,30600.0,3091.0,550.3917607141764
190558,College of Staten Island CUNY,17740.0,40.601831,-74.14849,33900.0,25800.0,2969.0,473.49413853323296
190725,Daemen College,35764.0,42.965605,-78.788111,46400.0,30100.0,792.0,1069.5569270506458
199962,Wingate University,40935.0,34.986064,-80.44305,36000.0,24800.0,543.0,1064.2698670487289
201371,Bluffton University,43387.0,40.895606,-83.899439,35500.0,19200.0,453.0,902.0946926110839
201441,Bowling Green State University-Main Campus,23423.0,41.375513,-83.640896,33500.0,19900.0,5416.0,270.4043965363254
204024,Miami University-Oxford,29413.0,39.507757,-84.732954,40800.0,28100.0,4910.0,401.01957634384627
202134,Cleveland State University,22462.0,41.502280999999996,-81.674355,37200.0,24300.0,3323.0,421.54224388128296
204264,Muskingum University,37883.0,39.996426,-81.73703,34400.0,19300.0,685.0,737.4150947043397
202514,Defiance College,43236.0,41.296842,-84.357075,32900.0,19100.0,438.0,912.6333017039185
203757,Lourdes University,31472.0,41.710009,-83.706108,36500.0,24200.0,714.0,905.6622381637949
205957,Franciscan University of Steubenville,35979.0,40.376919,-80.620524,34800.0,21400.0,666.0,829.2331563725776
206507,Wilmington College,36345.0,39.444744,-83.818342,33000.0,20300.0,671.0,783.6728080294157
206084,University of Toledo,23464.0,41.660571999999995,-83.614714,37900.0,27300.0,5876.0,356.14081931988744
206604,Wright State University-Main Campus,21024.0,39.780634,-84.064881,34500.0,22000.0,4661.0,322.2427308743722
207847,Southeastern Oklahoma State University,15342.0,34.006808,-96.376864,34300.0,21900.0,1360.0,593.8471282785713
207324,Oklahoma Christian University,31504.0,35.611412,-97.469526,36300.0,28000.0,717.0,1045.6791617625795
206941,University of Central Oklahoma,18226.0,35.6552,-97.471508,36900.0,25100.0,3756.0,409.55377156093556
207041,East Central University,13380.0,34.771934,-96.663849,33200.0,21500.0,1324.0,590.8734381740112
211361,California University of Pennsylvania,24049.0,40.064964,-79.88679,35100.0,23400.0,2898.0,434.6770058087752
211431,Carlow University,38552.0,40.439293,-79.963448,40400.0,25000.0,571.0,1046.217438296718
210304,Warner Pacific College,33296.0,45.506265,-122.59249799999999,43000.0,28700.0,780.0,1027.6248442465862
210401,Willamette University,58801.0,44.935457,-123.03053700000001,36600.0,23400.0,422.0,1139.094177416291
209807,Portland State University,21532.0,45.511601,-122.68628899999999,38400.0,28000.0,6076.0,359.2106040535498
163912,St Mary's College of Maryland,28326.0,38.188075,-76.43105899999999,38600.0,22700.0,401.0,1133.5839046263536
165802,Fisher College,43268.0,42.355253000000005,-71.074125,32400.0,21700.0,585.0,897.1845801952745
167358,Northeastern University,62789.0,42.339991999999995,-71.088782,57800.0,35200.0,4131.0,547.6650995309549
166452,Lesley University,40889.0,42.38012,-71.117303,33400.0,26700.0,695.0,1012.7887278175268
168005,Suffolk University,48936.0,42.358944,-71.061788,43700.0,24600.0,2067.0,541.0842203639379
168148,Tufts University,65814.0,42.408465,-71.120316,56600.0,38200.0,859.0,1303.3671804157361
170082,Grand Valley State University,21534.0,42.963001,-85.889826,37700.0,22200.0,6145.0,283.19920563665124
170842,Marygrove College,27888.0,42.414415000000005,-83.15410899999999,25800.0,18200.0,341.0,985.5852571544659
169798,Eastern Michigan University,21828.0,42.24694,-83.622501,35300.0,23600.0,5108.0,330.2072152630016
169248,Central Michigan University,22778.0,43.591203,-84.77525,37600.0,28800.0,6269.0,363.74191829277135
170675,Lawrence Technological University,42950.0,42.474072,-83.25003000000001,48100.0,27700.0,605.0,1126.1651450317122
169442,College for Creative Studies,52479.0,42.361839,-83.062352,37100.0,24700.0,507.0,1096.965511460289
171128,Michigan Technological University,26587.0,47.11866,-88.54809200000001,54000.0,27700.0,1772.0,658.0333583316282
171492,Northwood University,37263.0,43.628717,-84.27682,45700.0,31200.0,2089.0,682.6300053982286
185828,New Jersey Institute of Technology,29143.0,40.741997,-74.177113,54800.0,30900.0,1513.0,794.399597446399
183822,Bloomfield College,41738.0,40.795105,-74.19430899999999,32700.0,21800.0,834.0,754.8722635602437
189088,Bard College,66724.0,42.020386,-73.909927,31000.0,21300.0,363.0,1117.9600667035481
187985,University of New Mexico-Main Campus,17443.0,35.083868,-106.62015500000001,32600.0,26700.0,5424.0,362.53623560120695
191205,Five Towns College,29942.0,40.794506,-73.369348,26300.0,19000.0,488.0,860.089587403926
189705,Canisius College,46598.0,42.925206,-78.852577,37900.0,22300.0,1123.0,665.449318943166
190415,Cornell University,65464.0,42.4472,-76.48308399999999,76300.0,62000.0,2542.0,1229.71343082493
190655,CUNY New York City College of Technology,14949.0,40.695483,-73.98785600000001,32900.0,23500.0,4937.0,334.45392627821957
189848,Cazenovia College,46758.0,42.932489000000004,-75.85488199999999,30700.0,16900.0,555.0,717.365048362835
193645,The College of New Rochelle,47286.0,40.899427,-73.781104,37500.0,28600.0,1588.0,717.6964269167487
191968,Ithaca College,58703.0,42.422154,-76.494136,41200.0,23200.0,1792.0,548.0484858633795
194578,Pratt Institute-Main,62845.0,40.691297,-73.96431,40200.0,25500.0,1215.0,731.5635209502899
194958,Roberts Wesleyan College,41955.0,43.125755,-77.798498,39100.0,29300.0,673.0,1129.4319996803401
194392,Paul Smiths College of Arts and Science,44052.0,44.433965,-74.252675,31100.0,17300.0,588.0,713.439975498609
195128,The Sage Colleges,42224.0,42.72822,-73.693711,39400.0,23200.0,696.0,879.3937305515279
196088,University at Buffalo,24006.0,43.000941999999995,-78.789458,46100.0,32700.0,5332.0,447.81917165595496
196112,SUNY Polytechnic Institute,21836.0,43.137701,-75.22984100000001,45200.0,27300.0,944.0,888.539317444123
196592,Touro College,29651.0,40.753199,-73.98940400000001,40600.0,36300.0,2733.0,694.363381047436
196158,SUNY at Fredonia,22935.0,42.452236,-79.337375,32900.0,18900.0,1924.0,430.8829111952378
196185,SUNY Oneonta,22769.0,42.468861,-75.063632,35600.0,19600.0,2023.0,435.7708041753444
197045,Utica College,47857.0,43.096213,-75.27291600000001,40600.0,25700.0,1139.0,761.5023734655583
199032,Montreat College,35791.0,35.646577,-82.2976,37200.0,25600.0,427.0,1238.8708313493178
199102,North Carolina A & T State University,17903.0,36.07282,-79.773375,31700.0,21700.0,2496.0,434.34761719629887
198835,Lenoir-Rhyne University,44679.0,35.739968,-81.327598,33700.0,18500.0,596.0,757.7895264801125
198862,Livingstone College,27143.0,35.670877000000004,-80.483956,21300.0,15000.0,552.0,638.4423980690615
198598,Greensboro College,38917.0,36.071082000000004,-79.800232,30100.0,18900.0,467.0,874.5876972933928
206437,Walsh University,38912.0,40.873908,-81.36993100000001,40900.0,25300.0,797.0,896.1719789244054
206491,Wilberforce University,27440.0,39.707291,-83.880595,27300.0,20100.0,341.0,1088.4760257585035
204857,Ohio University-Main Campus,27183.0,39.326798,-82.100985,35900.0,26100.0,8799.0,278.24274454007235
206817,Bacone College,29200.0,35.777082,-95.334046,29400.0,19000.0,670.0,734.034038821943
207971,University of Tulsa,53667.0,36.152324,-95.945941,50400.0,43000.0,583.0,1780.8780381095517
209287,Multnomah University,35330.0,45.527139,-122.575557,33300.0,22000.0,213.0,1507.4151616205697
209551,University of Oregon,24209.0,44.045146,-123.07579199999999,39800.0,29500.0,4697.0,430.43912103476515
211477,Central Penn College,24271.0,40.3049,-76.934461,34000.0,22000.0,829.0,764.0915828119067
211644,Clarion University of Pennsylvania,23794.0,41.207805,-79.377501,33200.0,20000.0,2255.0,421.1693151426613
210571,Albright College,53027.0,40.361351,-75.90974200000001,39900.0,21800.0,892.0,729.9179878988433
212674,Gettysburg College,62370.0,39.836597,-77.23679200000001,47100.0,27200.0,528.0,1183.7280604987452
213321,King's College,46039.0,41.250097,-75.87982199999999,44400.0,28700.0,952.0,930.172343297356
212984,Holy Family University,35318.0,40.060581,-74.986451,43600.0,24100.0,820.0,841.6085064023417
214731,Pennsylvania State University-Penn State Brandywine,20417.0,39.926381,-75.44698299999999,43600.0,27400.0,22044.0,184.5463081877367
215284,University of Pittsburgh-Johnstown,25747.0,40.265957,-78.834163,44300.0,36600.0,7278.0,429.01755133906374
214777,Pennsylvania State University-Main Campus,34777.0,40.7965,-77.862848,43600.0,27400.0,22044.0,184.5463081877367
214591,Pennsylvania State University-Penn State Erie-Behrend College,30385.0,42.119433,-79.983773,43600.0,27400.0,22044.0,184.5463081877367
216524,Ursinus College,62734.0,40.193023,-75.456505,42000.0,24600.0,460.0,1146.980914135586
216764,West Chester University of Pennsylvania,24942.0,39.953398,-75.59812,39500.0,21300.0,3607.0,354.65536362446556
218964,Winthrop University,26666.0,34.941515,-81.03140400000001,31300.0,17600.0,1638.0,434.8662657745127
218654,University of South Carolina-Beaufort,21321.0,32.303308,-80.97359499999999,33800.0,22300.0,543.0,956.9845981930101
218061,Francis Marion University,19112.0,34.189777,-79.652854,32100.0,31700.0,1153.0,933.5651015252103
218724,Coastal Carolina University,23038.0,33.794995,-79.011767,33500.0,28200.0,2592.0,553.9003119294622
217864,Citadel Military College of South Carolina,27030.0,32.797183000000004,-79.958775,44700.0,24100.0,706.0,907.0154650414526
218441,North Greenville University,30987.0,35.069758,-82.37026,27800.0,16700.0,736.0,615.5701669466955
219471,University of South Dakota,20806.0,42.786019,-96.925283,37100.0,23000.0,2413.0,468.2191530687909
224147,Texas A & M University-Corpus Christi,19481.0,27.713722999999998,-97.32395,39100.0,26400.0,2452.0,533.1429785365328
224527,East Texas Baptist University,35787.0,32.557846999999995,-94.374488,34800.0,22100.0,537.0,953.6853929246478
224554,Texas A & M University-Commerce,18318.0,33.243745000000004,-95.908451,36000.0,23100.0,2259.0,486.0196903853084
226231,LeTourneau University,41236.0,32.467658,-94.72726,47300.0,36000.0,1236.0,1023.9842231794337
225511,University of Houston,23858.0,29.720392999999998,-95.343537,47100.0,33300.0,7730.0,378.7516090675797
226471,University of Mary Hardin-Baylor,37730.0,31.066798,-97.463479,38600.0,22200.0,999.0,702.3769168568493
225627,University of the Incarnate Word,39194.0,29.46708,-98.46583000000001,41000.0,26900.0,1792.0,635.4527702467633
226091,Lamar University,19321.0,30.042738,-94.072244,37200.0,26200.0,2492.0,524.8404175408275
227881,Sam Houston State University,20671.0,30.714738,-95.546205,39300.0,22900.0,4666.0,335.2456220289599
229027,The University of Texas at San Antonio,19488.0,29.582418,-98.621386,38800.0,24000.0,7185.0,283.1378014567795
110608,California State University-Northridge,16591.0,34.240126000000004,-118.529319,37400.0,25700.0,8339.0,281.43372335305617
115755,Humboldt State University,23139.0,40.877481,-124.07829299999999,30200.0,22300.0,2120.0,484.32505068082236
122612,University of San Francisco,61072.0,37.775564,-122.45097700000001,58500.0,46400.0,1630.0,1149.2755787139222
126775,Colorado School of Mines,31226.0,39.751443,-105.22336399999999,74700.0,40000.0,866.0,1359.2553320611696
129525,University of Hartford,51495.0,41.798590999999995,-72.715213,40300.0,24200.0,1845.0,563.4004385874598
131098,Wesley College,39189.0,39.163182,-75.527716,33600.0,21700.0,828.0,754.1271308397537
132842,Carlos Albizu University-Miami,28348.0,25.794178,-80.35631500000001,30200.0,22700.0,294.0,1323.8908847899556
133872,Adventist University of Health Sciences,23306.0,28.576141999999997,-81.367687,53500.0,30000.0,838.0,1036.3328037802003
134945,Jacksonville University,50441.0,30.353227,-81.60458,48800.0,36200.0,1411.0,963.7071111976537
138275,Warner University,31411.0,27.825751,-81.599972,35500.0,24000.0,460.0,1119.0057698883766
139658,Emory University,63058.0,33.790183,-84.325512,65500.0,52500.0,1157.0,1543.4502090993685
139755,Georgia Institute of Technology-Main Campus,25616.0,33.772420000000004,-84.394832,66100.0,41300.0,2527.0,821.575407120057
142285,University of Idaho,20045.0,46.727406,-117.01416699999999,35500.0,25700.0,2684.0,496.06874793980256
143358,Bradley University,44130.0,40.696896,-89.616786,45900.0,24100.0,1605.0,601.560794440678
142522,Brigham Young University-Idaho,12011.0,43.818408000000005,-111.782431,35600.0,28200.0,4541.0,418.47869949794915
141185,Toccoa Falls College,33616.0,34.593414,-83.357617,28000.0,18700.0,330.0,1029.4011203931473
143048,School of the Art Institute of Chicago,59698.0,41.88105,-87.62575799999999,28800.0,20000.0,732.0,739.2212709545728
142115,Boise State University,18298.0,43.604284,-116.203301,35600.0,33800.0,4883.0,483.6969380006982
145725,Illinois Institute of Technology,57277.0,41.8313,-87.627321,60400.0,37300.0,726.0,1384.3328394820082
149505,Trinity Christian College,39155.0,41.667687,-87.783973,39600.0,21700.0,637.0,859.7853041491052
149772,Western Illinois University,25280.0,40.468086,-90.686899,37000.0,20900.0,4071.0,327.56367501433533
149222,Southern Illinois University-Carbondale,26868.0,37.714193,-89.21727299999999,36700.0,23500.0,5635.0,313.05518562353393
150455,Earlham College,56510.0,39.823431,-84.915037,28000.0,17900.0,250.0,1132.0954023402799
193292,Molloy College,42239.0,40.685941,-73.626183,55400.0,30700.0,925.0,1009.4097820548938
192192,Keuka College,45277.0,42.615253,-77.090562,42300.0,25700.0,885.0,863.8960494068664
193308,Monroe College,22522.0,40.864459000000004,-73.900215,29100.0,21800.0,4034.0,343.2326130676937
192925,Medaille College,33693.0,42.92856,-78.855941,35400.0,22600.0,905.0,751.249419705423
192448,LIU Post,49203.0,40.820714,-73.593678,41500.0,34300.0,3976.0,543.9649688389352
196015,SUNY College of Technology at Canton,20980.0,44.604096000000006,-75.182906,31500.0,21300.0,1571.0,537.3923885289836
197285,The College of Westchester,28524.0,41.033687,-73.78440400000001,29700.0,21000.0,951.0,680.9716568817976
197708,Yeshiva University,57355.0,40.850605,-73.929873,48500.0,38700.0,435.0,1855.5229767484366
197142,Villa Maria College,25326.0,42.91223,-78.796823,25400.0,15800.0,315.0,890.2291483140374
198215,Catawba College,42163.0,35.691443,-80.48275100000001,31900.0,19000.0,508.0,842.9886839453081
199412,Queens University of Charlotte,45941.0,35.189051,-80.83350899999999,42200.0,24800.0,717.0,926.1729718468562
198695,High Point University,48008.0,35.972035,-79.994675,38000.0,27200.0,989.0,864.909681018495
198808,Lees-McRae College,41059.0,36.162477,-81.87337099999999,32500.0,38600.0,443.0,1833.9413452419385
199582,Saint Augustine's University,31999.0,35.785468,-78.621301,23800.0,14600.0,752.0,532.4072189673152
199148,University of North Carolina at Greensboro,18764.0,36.068236,-79.809414,33100.0,18700.0,4202.0,288.47858722608527
199698,St. Andrews University,42081.0,34.74563,-79.478567,31900.0,22000.0,353.0,1170.941849907169
199218,University of North Carolina Wilmington,21642.0,34.225223,-77.875527,36900.0,21800.0,3086.0,392.4266859219949
200217,University of Mary,26377.0,46.723766999999995,-100.75274,46700.0,25900.0,948.0,841.192894187812
199865,Warren Wilson College,47260.0,35.610328,-82.442619,21400.0,14600.0,293.0,852.9411072419996
201654,Cedarville University,36503.0,39.749237,-83.81469200000001,38200.0,22600.0,879.0,762.2790808110198
200004,Western Carolina University,19921.0,35.308979,-83.186258,33400.0,20300.0,2170.0,435.77887260220825
203517,Kent State University at Kent,24231.0,41.146653,-81.34253299999999,33500.0,21400.0,9486.0,219.7213269626854
204194,Mount Vernon Nazarene University,37167.0,40.372901,-82.471074,39300.0,23900.0,876.0,807.5061671873857
204501,Oberlin College,66870.0,41.291992,-82.21679499999999,30700.0,21200.0,446.0,1003.8490944780023
204617,Ohio Dominican University,43659.0,39.992764,-82.940689,37400.0,20600.0,947.0,669.4100540668212
213367,La Salle University,53044.0,40.037979,-75.153061,45200.0,25900.0,1463.0,677.1386463727227
213011,Immaculata University,50339.0,40.027981,-75.570711,51300.0,31500.0,778.0,1129.3297145267677
212054,Drexel University,67821.0,39.955217,-75.190051,54400.0,33700.0,4304.0,513.6813160158658
212601,Gannon University,41571.0,42.128403000000006,-80.087166,43800.0,29100.0,932.0,953.2021929270088
212197,Elizabethtown College,53666.0,40.149236,-76.59322399999999,44800.0,23500.0,714.0,879.4653965640157
214157,Moravian College,52257.0,40.630947,-75.383638,42600.0,23500.0,539.0,1012.2166567967778
215114,Cairn University-Langhorne,35911.0,40.165809,-74.909509,30600.0,19300.0,377.0,994.0005710654872
214704,Pennsylvania State University-Penn State Berks,28214.0,40.357987,-75.97214100000001,43600.0,27400.0,22044.0,184.5463081877367
214801,Pennsylvania State University-Penn State Abington,20558.0,40.11683,-75.109083,43600.0,27400.0,22044.0,184.5463081877367
214634,Pennsylvania State University-Penn State Shenango,22573.0,41.235053,-80.508764,43600.0,27400.0,22044.0,184.5463081877367
213987,Mercyhurst University,47304.0,42.105779999999996,-80.053412,34300.0,20700.0,1773.0,491.60464491657655
214041,Millersville University of Pennsylvania,24171.0,40.000337,-76.357381,35600.0,19200.0,2482.0,385.3899100337761
215637,The Restaurant School at Walnut Hill College,35862.0,39.955098,-75.20749,28500.0,17500.0,323.0,973.7260471306502
216597,Villanova University,62583.0,40.039388,-75.345457,64700.0,37100.0,1431.0,980.7404610047715
216694,Waynesburg University,32709.0,39.899871000000005,-80.186205,43800.0,26900.0,780.0,963.1745055830372
216357,Thiel College,43137.0,41.413540000000005,-80.384383,34400.0,21700.0,478.0,992.5348976295757
217484,University of Rhode Island,27552.0,41.484691,-71.52735600000001,42500.0,26100.0,4067.0,409.2638836758454
215947,Seton Hill University,45122.0,40.309407,-79.55743299999999,35900.0,21600.0,635.0,857.1698533431487
216931,Wilkes University,47697.0,41.244199,-75.89026199999999,47200.0,30700.0,919.0,1012.6995564974548
110422,California Polytechnic State University-San Luis Obispo,25300.0,35.299513,-120.657311,54700.0,33600.0,3560.0,563.1372794493524
112075,Concordia University-Irvine,45687.0,33.653665000000004,-117.81230500000001,40800.0,28500.0,557.0,1207.583756030052
110538,California State University-Chico,22417.0,39.729712,-121.84485900000001,42900.0,29300.0,4150.0,454.82420806391104
110565,California State University-Fullerton,17049.0,33.881506,-117.885446,38500.0,25200.0,8295.0,276.6892878759791
139968,Gordon State College,18449.0,33.04571,-84.15450799999999,27400.0,19400.0,1779.0,459.9533177671557
138558,Abraham Baldwin Agricultural College,13171.0,31.481889000000002,-83.528281,29100.0,19800.0,1513.0,509.0327517617702
138868,Point University,28898.0,32.87912,-85.184931,30200.0,20200.0,347.0,1084.3928167319384
140818,Piedmont College,33659.0,34.566041999999996,-83.542126,40200.0,23200.0,860.0,791.1134337857493
143118,Aurora University,32930.0,41.753631,-88.349023,39200.0,24600.0,1039.0,763.1806197259681
141565,University of Hawaii at Hilo,19087.0,19.701189000000003,-155.080847,31700.0,23900.0,992.0,758.8257588261382
146612,Lewis University,37393.0,41.605432,-88.079032,43800.0,26000.0,1471.0,677.902150482519
147828,Olivet Nazarene University,43883.0,41.155237,-87.875165,39300.0,25300.0,1174.0,738.3911328534904
147165,Midstate College,26096.0,40.761916,-89.59885899999999,31500.0,25500.0,315.0,1436.7622330384781
148335,Robert Morris University Illinois,35116.0,41.876278000000006,-87.62706800000001,33000.0,22200.0,3244.0,389.77371790744604
148405,Rockford University,39242.0,42.270639,-89.019536,38300.0,20700.0,470.0,954.819800309896
151102,Indiana University-Purdue University-Fort Wayne,18025.0,41.117278000000006,-85.108962,33100.0,19900.0,3467.0,337.96844659972203
151342,Indiana University-South Bend,16584.0,41.665324,-86.221991,31600.0,20000.0,2115.0,434.88538203562814
150668,Goshen College,41312.0,41.563582000000004,-85.827795,35900.0,21900.0,327.0,1211.072767304435
151388,Indiana University-East,15715.0,39.868707,-84.881923,32400.0,26000.0,863.0,885.0502928407368
153658,University of Iowa,21010.0,41.661935,-91.536425,47700.0,38600.0,5734.0,509.7514389124538
153278,University of Dubuque,38561.0,42.49726,-90.693428,35300.0,18700.0,684.0,715.0123705632508
153375,Grand View University,34943.0,41.620813,-93.604352,39800.0,24700.0,1000.0,781.0825820615897
155025,Emporia State University,17347.0,38.414784000000004,-96.17902099999999,33000.0,19200.0,1430.0,507.73044993402726
154688,Baker University,41824.0,38.777278,-95.188231,48500.0,34900.0,968.0,1121.7284847004778
154712,Benedictine College,40871.0,39.572646,-95.111473,35500.0,20400.0,534.0,882.7943377121475
156295,Berea College,34980.0,37.57202,-84.292893,27100.0,15600.0,539.0,671.9395679161589
156365,Campbellsville University,34874.0,37.343342,-85.348943,28700.0,16500.0,714.0,617.4969805662238
157058,Kentucky State University,17874.0,38.201427,-84.855402,25600.0,16200.0,895.0,541.5062790765492
157085,University of Kentucky,26143.0,38.038911,-84.504747,43500.0,45600.0,4593.0,672.8474641354222
226587,McMurry University,37497.0,32.429776000000004,-99.74868199999999,36200.0,22600.0,712.0,846.9708085653234
225247,Hardin-Simmons University,35218.0,32.476434000000005,-99.73564,40200.0,25600.0,757.0,930.4478261565619
227331,Our Lady of the Lake University,35822.0,29.425611,-98.54395,35500.0,25000.0,613.0,1009.7404896525243
227757,Rice University,58253.0,29.717896999999997,-95.402035,68300.0,72000.0,418.0,3521.635113920533
228431,Stephen F Austin State University,20635.0,31.621056,-94.64908,36700.0,21600.0,3751.0,352.6795021616671
228981,Texas Lutheran University,40088.0,29.573261,-97.982669,38600.0,23800.0,529.0,1034.7826086956522
229814,West Texas A & M University,18834.0,34.982789000000004,-101.914736,39300.0,38600.0,2214.0,820.3487041414952
230047,Brigham Young University-Hawaii,16929.0,21.642073999999997,-157.92658600000001,35600.0,32300.0,471.0,1488.3054385966152
230931,Lyndon State College,22392.0,44.534525,-72.024955,30200.0,17700.0,670.0,683.8106572183364
232557,Liberty University,35622.0,37.350232,-79.18222,35800.0,26100.0,8709.0,279.6767485982889
231174,University of Vermont,30573.0,44.477325,-73.196646,40400.0,27800.0,2806.0,524.8086234362694
230764,University of Utah,18444.0,40.762484,-111.84604399999999,47200.0,43500.0,5123.0,607.7529548335579
232681,University of Mary Washington,25072.0,38.302492,-77.476055,40300.0,25200.0,925.0,828.5708960190007
230807,Westminster College,42769.0,40.730779,-111.85575700000001,44600.0,44200.0,674.0,1702.5203868546732
231554,Bluefield College,35698.0,37.244557,-81.24623299999999,39400.0,25400.0,378.0,1306.4350296790449
230834,Castleton University,22948.0,43.608397,-73.180842,33800.0,17900.0,799.0,633.2564782211164
232937,Norfolk State University,22976.0,36.848428999999996,-76.261375,30000.0,29200.0,1946.0,661.929038030106
233541,Shenandoah University,44258.0,39.166058,-78.158376,42300.0,28300.0,769.0,1020.5241010540857
235097,Eastern Washington University,20638.0,47.490666999999995,-117.583808,37700.0,28900.0,3009.0,526.8497143103776
235167,The Evergreen State College,21953.0,47.07382,-122.977492,28400.0,20200.0,1543.0,514.2430209932955
240107,Viterbo University,36321.0,43.803133,-91.244297,41300.0,23800.0,832.0,825.1165418850284
238661,Edgewood College,39116.0,43.057059,-89.422884,41500.0,21800.0,749.0,796.5546638136378
240277,University of Wisconsin-Green Bay,17979.0,44.532298,-87.919973,36500.0,20200.0,1993.0,452.4782624868081
240727,University of Wyoming,19169.0,41.311772999999995,-105.57931,44200.0,36200.0,2312.0,752.8607493809712
239017,Lawrence University,55275.0,44.261323,-88.39782199999999,32600.0,22700.0,309.0,1291.3578814540635
240374,University of Wisconsin-Parkside,15793.0,42.647718,-87.855231,32900.0,20400.0,1504.0,526.0248355919846
240417,University of Wisconsin-Stout,19002.0,44.873187,-91.926653,41000.0,20900.0,2891.0,388.7068913570313
163268,University of Maryland-Baltimore County,23818.0,39.256686,-76.711607,42900.0,26700.0,2112.0,580.9841767521416
163295,Maryland Institute College of Art,58588.0,39.308792,-76.621033,30200.0,23400.0,574.0,976.6971292217282
163338,University of Maryland Eastern Shore,21739.0,38.207386,-75.686852,29100.0,19700.0,1352.0,535.7693688221149
161235,University of Maine at Fort Kent,18248.0,47.250389,-68.58931899999999,36000.0,21800.0,237.0,1416.0621693663554
163462,Mount St. Mary's University,52031.0,39.681705,-77.351887,42000.0,20400.0,519.0,895.46061386454
165015,Brandeis University,65954.0,42.364946999999994,-71.254716,47000.0,33300.0,555.0,1413.5062787267696
164748,Berklee College of Music,59678.0,42.346646,-71.089405,25700.0,21600.0,1104.0,650.0836066631537
166018,Hampshire College,63598.0,42.325852000000005,-72.531469,24900.0,20000.0,340.0,1084.6522890932808
166948,Mount Ida College,47116.0,42.293525,-71.193175,34100.0,18800.0,673.0,724.6867438221977
173045,Augsburg University,47914.0,44.966307,-93.240436,41500.0,27200.0,1028.0,848.3446917104552
173902,Macalester College,61853.0,44.938565000000004,-93.168053,36900.0,28300.0,327.0,1564.993576014407
173328,Concordia University-Saint Paul,31499.0,44.949759,-93.154861,46000.0,37100.0,720.0,1382.63536608737
175078,Southwest Minnesota State University,19703.0,44.45373,-95.759548,34900.0,20300.0,982.0,647.7990309666918
174358,Minnesota State University Moorhead,19628.0,46.867153,-96.759532,36300.0,19500.0,2462.0,392.9982233729941
175272,Winona State University,21334.0,44.046159,-91.643723,40000.0,19700.0,2668.0,381.39352313621544
183062,Keene State College,25060.0,42.926452000000005,-72.279276,36100.0,23300.0,1972.0,524.6896117143674
181002,Creighton University,50060.0,41.265361,-95.947811,50900.0,29000.0,990.0,921.6805029374059
185572,Monmouth University,48168.0,40.280066,-74.006447,42600.0,24500.0,1610.0,610.5948631920529
184782,Rowan University,27553.0,39.709108,-75.119119,39800.0,23100.0,3367.0,398.0983904543304
184348,Drew University,62136.0,40.761829,-74.424584,36200.0,25900.0,341.0,1402.5636351813553
185262,Kean University,24367.0,40.677981,-74.233503,38000.0,24400.0,3926.0,389.41679554439247
186432,Saint Peter's University,44502.0,40.727105,-74.071541,38200.0,27100.0,816.0,948.6897569289766
187648,Eastern New Mexico University-Main Campus,16948.0,34.175592,-103.34819,29200.0,24900.0,1912.0,569.4497454142036
100858,Auburn University,29794.0,32.599378,-85.488258,43100.0,35100.0,3808.0,568.7987674170242
106412,University of Arkansas at Pine Bluff,16319.0,34.244031,-92.018683,23900.0,15900.0,1341.0,434.19291787509144
106245,University of Arkansas at Little Rock,21392.0,34.723254,-92.33977800000001,34600.0,23700.0,2647.0,460.6503180580816
120865,Pacific Union College,41700.0,38.570584999999994,-122.440308,48600.0,41300.0,403.0,2057.299538127145
122755,San Jose State University,22780.0,37.336569,-121.88062099999999,47200.0,36500.0,5999.0,471.25224644553504
123572,Sonoma State University,24000.0,38.340274,-122.677066,41200.0,26000.0,2093.0,568.3144960843664
127565,Metropolitan State University of Denver,18017.0,39.744202,-105.00504,36100.0,23000.0,6229.0,291.4195415088392
126818,Colorado State University-Fort Collins,24885.0,40.574805,-105.08073200000001,39900.0,24200.0,5438.0,328.16764793158967
126182,Adams State University,21026.0,37.473636,-105.87964199999999,28800.0,19600.0,971.0,628.9939329295664
126562,University of Colorado Denver/Anschutz Medical Campus,20306.0,39.745149,-104.837722,48700.0,36200.0,3073.0,653.0212146639429
127185,Fort Lewis College,24298.0,37.275939,-107.86742199999999,30500.0,20800.0,1206.0,598.9487750697431
126678,Colorado College,63600.0,38.848859999999995,-104.82269699999999,35900.0,25800.0,277.0,1550.1717617653628
127918,Regis University,45305.0,39.788175,-105.03075600000001,54100.0,34000.0,1595.0,851.3312459214284
129215,Eastern Connecticut State University,24077.0,41.721672999999996,-72.218753,36800.0,19800.0,1635.0,489.67317316120295
129242,Fairfield University,60526.0,41.157672999999996,-73.255903,56500.0,27300.0,869.0,926.0890705695151
133492,Eckerd College,55113.0,27.715798,-82.687043,36000.0,29000.0,737.0,1068.228729591448
136172,University of North Florida,20926.0,30.27194,-81.50914399999999,37500.0,22200.0,3660.0,366.9546807235439
136215,Nova Southeastern University,43351.0,26.079337,-80.24248,47800.0,33700.0,2305.0,701.931021077862
137032,Saint Leo University,35092.0,28.336776,-82.257801,39200.0,27300.0,3684.0,449.7827923126743
102368,Troy University,18404.0,31.800672,-85.957094,34300.0,29300.0,6056.0,376.50841494681043
101365,Herzing University-Birmingham,25945.0,33.468466,-86.832465,30100.0,20500.0,2348.0,423.06277599916046
101435,Huntingdon College,34207.0,32.351034000000006,-86.284366,34600.0,21200.0,468.0,979.9703466645714
102632,University of Alaska Southeast,16364.0,58.384845999999996,-134.63825500000002,35200.0,24500.0,351.0,1307.7132560748785
101912,Oakwood University,35585.0,34.756344,-86.65270500000001,25800.0,19900.0,501.0,889.0664327014529
106458,Arkansas State University-Main Campus,20872.0,35.842388,-90.679988,30900.0,30300.0,4260.0,464.2349453746909
109785,Azusa Pacific University,48284.0,34.130047,-117.888375,48300.0,35000.0,1918.0,799.1784102357003
111948,Chapman University,64501.0,33.793678,-117.851481,46900.0,31700.0,3244.0,556.5687773723441
110592,California State University-Los Angeles,13385.0,34.066927,-118.16896499999999,37200.0,25300.0,5661.0,336.25902062618616
110635,University of California-Berkeley,34924.0,37.871918,-122.26046299999999,57600.0,50800.0,5251.0,701.0398457712508
110662,University of California-Los Angeles,33078.0,34.068892,-118.443901,52000.0,50400.0,5482.0,680.7082604631912
110705,University of California-Santa Barbara,34998.0,34.416297,-119.846426,42800.0,29300.0,4575.0,433.1836647793797
113698,Dominican University of California,60045.0,37.980014000000004,-122.51465400000001,54200.0,38100.0,507.0,1692.080404317288
159568,Louisiana College,24134.0,31.324528000000004,-92.425973,35400.0,22700.0,364.0,1189.8032896793773
162928,Johns Hopkins University,65473.0,39.328977,-76.621595,68000.0,50800.0,1242.0,1441.461058751481
165662,Emerson College,59734.0,42.352202,-71.065384,38700.0,22700.0,1188.0,658.5937983657235
164988,Boston University,65809.0,42.351118,-71.10794200000001,52800.0,34800.0,3710.0,571.3369198737131
166638,University of Massachusetts-Boston,21884.0,42.312881,-71.036865,42600.0,27200.0,3365.0,468.89582922297814
167288,Massachusetts College of Liberal Arts,21680.0,42.691361,-73.102817,30100.0,16900.0,594.0,693.4153991835743
168528,Adrian College,48671.0,41.898590999999996,-84.061481,34000.0,20700.0,613.0,836.0651254322901
173665,Hamline University,47506.0,44.966246000000005,-93.164479,42800.0,25100.0,911.0,831.6001002128274
174075,University of Minnesota-Crookston,22641.0,47.802535999999996,-96.606188,42500.0,28000.0,575.0,1167.6807187196187
175005,St Catherine University,47059.0,44.924926,-93.183761,44300.0,24700.0,1269.0,693.3717483447673
176628,Avila University,37233.0,38.91339,-94.591758,39900.0,22000.0,480.0,1004.1580220928046
176035,Mississippi University for Women,17193.0,33.493305,-88.418601,33100.0,22500.0,714.0,842.0413371357597
177968,Lindenwood University,31802.0,38.785425,-90.501286,37900.0,24200.0,2453.0,488.614771183633
176965,University of Central Missouri,18808.0,38.759111,-93.73742800000001,35100.0,20900.0,2954.0,384.5395738003452
177418,Fontbonne University,37113.0,38.642697,-90.315712,36200.0,22600.0,814.0,792.1295900730432
178402,University of Missouri-Kansas City,21575.0,39.034178999999995,-94.58214100000001,44400.0,31700.0,2596.0,622.1669225432462
178615,Truman State University,20555.0,40.188266999999996,-92.58165799999999,36000.0,18300.0,1201.0,528.0555189946565
181215,University of Nebraska at Kearney,20967.0,40.701287,-99.09806999999999,36300.0,19900.0,1562.0,503.5151723724112
237011,Western Washington University,22959.0,48.737812,-122.48573400000001,37400.0,24300.0,3562.0,407.15457211280807
240444,University of Wisconsin-Madison,24594.0,43.075409,-89.404098,49600.0,36200.0,5404.0,492.4372534208036
240471,University of Wisconsin-River Falls,18746.0,44.8534,-92.622641,36700.0,18900.0,2165.0,406.19339186344905
241191,Universidad Adventista de las Antillas,13452.0,18.205329000000003,-67.11263199999999,22200.0,20100.0,264.0,1237.069484342294
243744,Stanford University,64477.0,37.429434,-122.167359,92800.0,98100.0,1050.0,3027.4317262562436
248934,ECPI University,24460.0,36.842533,-76.178775,32400.0,22700.0,8366.0,248.1800839151194
367884,Hodges University,25741.0,26.275909999999996,-81.738388,31600.0,26300.0,1642.0,649.0365763703185
142328,Lewis-Clark State College,15475.0,46.412199,-117.024875,33700.0,24100.0,1213.0,691.9690055913583
140988,Shorter University,33083.0,34.257543,-85.196529,36600.0,25700.0,1338.0,702.5950190807434
144005,Chicago State University,21509.0,41.718446,-87.60938399999999,32200.0,22800.0,1658.0,559.9414065503656
144892,Eastern Illinois University,22957.0,39.479843,-88.175658,35500.0,19800.0,3598.0,330.0917048788023
144962,Elmhurst College,43482.0,41.897164000000004,-87.945369,42700.0,24500.0,1089.0,742.4242424242424
152248,Purdue University-Calumet Campus,16667.0,41.584326000000004,-87.474034,35700.0,26400.0,2249.0,556.6845896245719
151458,International Business College-Fort Wayne,22367.0,41.035006,-85.257786,25600.0,13900.0,894.0,464.8855431530025
154095,University of Northern Iowa,19751.0,42.514922999999996,-92.459703,39600.0,19700.0,4201.0,303.9414180766926
156125,Wichita State University,18646.0,37.718882,-97.292361,38900.0,28600.0,3077.0,515.5873875892854
155335,Newman University,33632.0,37.672643,-97.37768,39500.0,23600.0,454.0,1107.6028805348797
157535,University of Pikeville,34547.0,37.479232,-82.521063,32100.0,25800.0,317.0,1449.0723672584645
156745,Georgetown College,46397.0,38.207615000000004,-84.55376700000001,32500.0,19700.0,360.0,1038.2811650886179
426314,Embry-Riddle Aeronautical University-Worldwide,22416.0,29.189903,-81.048367,51400.0,31400.0,2947.0,578.4150441962605
160038,Northwestern State University of Louisiana,20263.0,31.750666,-93.097797,35700.0,28900.0,2191.0,617.414257310339
160612,Southeastern Louisiana University,18397.0,30.514652,-90.468676,34600.0,25500.0,3360.0,439.91679408075083
158802,Dillard University,29900.0,29.996586999999998,-90.06464,27600.0,18300.0,277.0,1099.5404356707807
159382,Louisiana State University-Alexandria,13520.0,31.178615999999998,-92.41440899999999,33000.0,22000.0,779.0,788.2318002900205
160658,University of Louisiana at Lafayette,18910.0,30.212190999999997,-92.020165,37200.0,35600.0,3107.0,638.6741980478087
160755,Tulane University of Louisiana,64926.0,29.940069,-90.12214399999999,48400.0,39400.0,1438.0,1039.002945617283
160065,University of Holy Cross,19397.0,29.912003000000002,-89.99445,38700.0,29800.0,302.0,1714.7973061923394
448840,University of South Florida-St Petersburg,18789.0,27.763871999999996,-82.636136,39400.0,27400.0,10002.0,273.9726041093151
456959,University of Minnesota-Rochester,25198.0,44.022339,-92.463471,46000.0,31300.0,8089.0,348.0141639734249
448309,Shorter University-College of Adult & Professional Programs,24395.0,33.92788,-84.482166,36600.0,25700.0,1338.0,702.5950190807434
104586,Embry-Riddle Aeronautical University-Prescott,48992.0,34.616766,-112.44974099999999,51400.0,31400.0,2947.0,578.4150441962605
433660,Florida Gulf Coast University,18841.0,26.463638,-81.7726,36500.0,21100.0,2449.0,426.3713972527512
433536,Herzing University-Kenner,27179.0,30.001604999999998,-90.239525,30100.0,20500.0,2348.0,423.06277599916046
165936,Gordon College,47568.0,42.588173,-70.819133,36300.0,20600.0,458.0,962.5747858429554
164173,Stevenson University,45970.0,39.421988,-76.70209200000001,43800.0,23600.0,1006.0,744.0686601209294
164270,McDaniel College,51889.0,39.584231,-77.001992,36400.0,19800.0,486.0,898.1462390204987
164720,Becker College,48927.0,42.26918,-71.81189499999999,38100.0,23900.0,874.0,808.4295593326274
164739,Bentley University,60895.0,42.388798,-71.220148,67000.0,32500.0,1186.0,943.7153442259416
167899,Springfield College,48620.0,42.101576,-72.556751,40700.0,23800.0,1750.0,568.9288180431713
166850,Merrimack College,51996.0,42.668352,-71.124216,47000.0,25100.0,646.0,987.5462915826154
167729,Salem State University,22626.0,42.503575,-70.89023399999999,39300.0,26000.0,2229.0,550.7041049563657
166656,MCPHS University,48040.0,42.336825,-71.101244,82200.0,43900.0,1280.0,1227.0423026530095
166683,Massachusetts Institute of Technology,63250.0,42.360095,-71.092115,99600.0,88000.0,868.0,2986.9146265293753
168430,Worcester State University,20892.0,42.267534000000005,-71.84401899999999,41000.0,24000.0,1361.0,650.5522437865118
169080,Calvin College,43517.0,42.929916,-85.587548,38900.0,22600.0,917.0,746.3177509527239
172440,Finlandia University,33457.0,47.127868,-88.588756,29300.0,20700.0,237.0,1344.609491095576
173300,Concordia College at Moorhead,45918.0,46.862482,-96.76749000000001,39700.0,20200.0,942.0,658.1515645755853
174020,Metropolitan State University,21538.0,44.957256,-93.074361,44600.0,26200.0,2299.0,546.4265661280652
174066,University of Minnesota-Twin Cities,25370.0,44.972851,-93.23546400000001,46000.0,31300.0,8089.0,348.0141639734249
174233,University of Minnesota-Duluth,23611.0,46.817126,-92.084385,40900.0,21900.0,3292.0,381.69300547072305
174783,Saint Cloud State University,18750.0,45.553227,-94.15265699999999,38000.0,20000.0,4748.0,290.251612080071
175856,Jackson State University,21670.0,32.296105,-90.20740500000001,27800.0,18600.0,1826.0,435.2738307968454
177746,Kansas City Art Institute,50020.0,39.046353,-94.58359399999999,26300.0,15100.0,234.0,987.1178801955263
176770,Cox College,23818.0,37.225116,-93.290233,41100.0,23700.0,266.0,1453.140234579369
176053,Mississippi College,29759.0,32.335515,-90.329821,34500.0,21800.0,1084.0,662.1278457615578
177339,Evangel University,33829.0,37.220956,-93.262614,32800.0,22400.0,680.0,859.0007875090548
178059,Maryville University of Saint Louis,43804.0,38.644774,-90.50599799999999,44100.0,26000.0,1029.0,810.5235923051144
179326,Southwest Baptist University,32059.0,37.602425,-93.40705600000001,31000.0,19600.0,1089.0,593.939393939394
180416,Montana Tech of the University of Montana,17740.0,46.012868,-112.55951100000001,48100.0,38400.0,739.0,1412.5668341332025
180489,The University of Montana,17883.0,46.859312,-113.98291200000001,33900.0,30400.0,3642.0,503.7367233347437
182670,Dartmouth College,67044.0,43.704115,-72.289949,74600.0,74900.0,724.0,2783.636577695638
200280,University of North Dakota,19290.0,47.921654,-97.071738,45400.0,26300.0,2823.0,494.99442705922996
202763,The University of Findlay,42428.0,41.053344,-83.652313,44200.0,30800.0,969.0,989.4385519529827
202170,Columbus College of Art and Design,45152.0,39.966074,-82.989479,30300.0,19200.0,564.0,808.4658442238582
203580,Lake Erie College,41756.0,41.717841,-81.251817,32500.0,19100.0,414.0,938.7137875195118
206349,Ursuline College,39433.0,41.497035,-81.465118,43700.0,23300.0,394.0,1173.8370419335167
207263,Northeastern State University,15999.0,35.919939,-94.967229,33500.0,22200.0,2674.0,429.31125373137365
209506,Oregon Institute of Technology,21988.0,42.257152000000005,-121.785177,52900.0,27600.0,1017.0,865.4631989129094
210429,Western Oregon University,22574.0,44.852235,-123.23830900000002,33300.0,19400.0,1678.0,473.5935202339958
213303,Keystone College,37089.0,41.558969,-75.777456,28900.0,19000.0,816.0,665.1330399133046
213349,Kutztown University of Pennsylvania,24401.0,40.513560999999996,-75.78393299999999,34200.0,18600.0,3485.0,315.0732646915411
213543,Lehigh University,60391.0,40.606821999999994,-75.380236,67300.0,43700.0,958.0,1411.882913406456
212009,Dickinson College,64431.0,40.202796,-77.197854,45300.0,25600.0,413.0,1259.6936481411146
212656,Geneva College,35754.0,40.772518,-80.321826,35600.0,21200.0,705.0,798.438191783992
214069,Misericordia University,42286.0,41.345277,-75.971541,45100.0,23100.0,863.0,786.3331447931162
214740,Pennsylvania State University-Penn State DuBois,21333.0,41.126940999999995,-78.751784,43600.0,27400.0,22044.0,184.5463081877367
214759,Pennsylvania State University-Penn State Fayette- Eberly,20184.0,39.947216999999995,-79.65776899999999,43600.0,27400.0,22044.0,184.5463081877367
216339,Temple University,30166.0,39.980546000000004,-75.156859,42200.0,31300.0,9232.0,325.7590123728189
163453,Morgan State University,23279.0,39.344161,-76.585565,30300.0,20100.0,2195.0,429.0212413302265
162760,Hood College,49260.0,39.420631,-77.419049,37500.0,22800.0,465.0,1057.3246823331838
161873,University of Baltimore,23143.0,39.305834000000004,-76.616591,45100.0,31000.0,1040.0,961.2691930663656
165820,Fitchburg State University,19645.0,42.589345,-71.789354,37700.0,21400.0,1315.0,590.1343534595151
165866,Framingham State University,23139.0,42.297289,-71.437175,38100.0,22600.0,1119.0,675.6058413782248
164076,Towson University,23278.0,39.393622,-76.611164,41900.0,23000.0,4699.0,335.52517651169944
165529,Curry College,52182.0,42.238061,-71.116539,44800.0,28400.0,1052.0,875.6095106890544
166513,University of Massachusetts-Lowell,26318.0,42.652864,-71.326809,45700.0,29000.0,3057.0,524.5057801198476
166629,University of Massachusetts-Amherst,28000.0,42.385999,-72.526728,44200.0,27100.0,6559.0,334.6189063269039
168263,Westfield State University,21411.0,42.131589,-72.795673,37500.0,18600.0,1748.0,444.87933210849405
167260,Nichols College,47827.0,42.044033,-71.930283,40300.0,22500.0,694.0,854.0883202512638
168546,Albion College,51883.0,42.245049,-84.745639,37600.0,21700.0,402.0,1082.2976296767818
170806,Madonna University,27168.0,42.384322999999995,-83.40472199999999,40700.0,22800.0,829.0,791.8767312777942
168740,Andrews University,36529.0,41.963859,-86.355815,35200.0,21400.0,426.0,1036.8333878586297
170976,University of Michigan-Ann Arbor,27725.0,42.275921000000004,-83.742769,55900.0,43900.0,4885.0,628.1049791973696
169716,University of Detroit Mercy,50078.0,42.414221999999995,-83.139158,47000.0,28500.0,954.0,922.7215692394009
169910,Ferris State University,21635.0,43.687723999999996,-85.481925,40300.0,25200.0,4916.0,359.4136803926316
170639,Lake Superior State University,20709.0,46.492849,-84.365573,33000.0,20100.0,960.0,648.7247104897423
169479,Davenport University,27175.0,42.850013,-85.533519,35100.0,26000.0,4474.0,388.70968190697965
171100,Michigan State University,25809.0,42.73212,-84.476111,45200.0,34500.0,7848.0,389.4391403501929
171146,University of Michigan-Flint,19729.0,43.01875,-83.690276,36800.0,25600.0,1943.0,580.7691848869534
171456,Northern Michigan University,19788.0,46.559751,-87.40656800000001,32000.0,21100.0,2763.0,401.41353569319585
171599,Olivet College,36519.0,42.442890999999996,-84.923891,31000.0,19300.0,558.0,817.0341503678923
173160,Bethel University,47083.0,45.057655,-93.161663,46100.0,28600.0,1256.0,806.9956866158335
173920,Minnesota State University-Mankato,18844.0,44.146712,-93.99945,38800.0,22500.0,4332.0,341.85213307280475
172699,Western Michigan University,23598.0,42.282194,-85.613759,35300.0,22000.0,5713.0,291.0653909156884
175616,Delta State University,18317.0,33.744745,-90.735365,32400.0,25200.0,988.0,801.7188013494799
174899,The College of Saint Scholastica,45373.0,46.816082,-92.106134,48600.0,27500.0,1191.0,796.850433224649
176910,Central Christian College of the Bible,21348.0,39.395963,-92.42725899999999,25000.0,16600.0,200.0,1173.7972567696688
176080,Mississippi State University,22818.0,33.454852,-88.790139,37100.0,32500.0,3682.0,535.6011106236145
176479,William Carey University,25731.0,31.305264,-89.291815,34000.0,21100.0,859.0,719.9227096013622
178679,Ozark Christian College,20258.0,37.103172,-94.510622,27000.0,16300.0,196.0,1164.2857142857142
185129,New Jersey City University,22349.0,40.709937,-74.08726999999999,37200.0,25500.0,1896.0,585.6268955226474
186283,Rider University,53848.0,40.278796,-74.737833,42200.0,23500.0,1546.0,597.6722851312177
186380,Rutgers University-New Brunswick,29388.0,40.498769,-74.446251,48200.0,35700.0,11196.0,337.3935463886269
186399,Rutgers University-Newark,23299.0,40.739121999999995,-74.175809,48200.0,35700.0,11196.0,337.3935463886269
188030,New Mexico State University-Main Campus,17053.0,32.281568,-106.75206899999999,29700.0,23700.0,5775.0,311.8691034109305
188146,Santa Fe University of Art and Design,44912.0,35.658664,-105.976796,30500.0,20400.0,310.0,1158.6421418640123
190150,Columbia University in the City of New York,69021.0,40.808285999999995,-73.961885,77900.0,61800.0,2065.0,1359.9672407391943
190646,CUNY Medgar Evers College,18294.0,40.666256,-73.957076,30000.0,21900.0,2146.0,472.74751649509835
190716,D'Youville College,34728.0,42.902636,-78.89086800000001,50600.0,30400.0,640.0,1201.665510863984
192703,Manhattan College,52890.0,40.889756,-73.901893,54000.0,30300.0,944.0,986.1810006797408
193399,College of Mount Saint Vincent,30520.0,40.913657,-73.908887,46200.0,29900.0,578.0,1243.676044557516
193016,Mercy College,28848.0,41.021626,-73.874447,37800.0,26800.0,2062.0,590.1881203978761
193900,New York University,67637.0,40.729452,-73.997264,55900.0,45600.0,5001.0,644.816905975296
195173,St Francis College,29440.0,40.693228000000005,-73.992164,37700.0,28000.0,660.0,1089.898521826132
195809,St John's University-New York,51345.0,40.722522999999995,-73.796104,48100.0,38400.0,3845.0,619.2742931811869
196006,SUNY College of Technology at Alfred,22556.0,42.255262,-77.794632,34600.0,19700.0,1886.0,453.62332957262646
195003,Rochester Institute of Technology,50713.0,43.084188,-77.67385999999999,50600.0,33500.0,3934.0,534.1062121494512
195030,University of Rochester,65364.0,43.126397,-77.631202,49300.0,32700.0,1043.0,1012.5246348340041
196060,SUNY at Albany,23777.0,42.685489000000004,-73.824662,41000.0,24400.0,4294.0,372.3563858219873
196079,Binghamton University,24093.0,42.087868,-75.966889,47700.0,28800.0,2609.0,563.8394363000651
196103,SUNY College of Environmental Science and Forestry,24430.0,43.034765,-76.138724,36000.0,22700.0,548.0,969.6959415085237
196130,SUNY Buffalo State,20172.0,42.933832,-78.882125,33700.0,19700.0,3696.0,324.0412097676862
198136,Campbell University,43835.0,35.409149,-78.738238,38700.0,26700.0,1312.0,737.1304365496006
196200,SUNY College at Potsdam,22502.0,44.662147999999995,-74.973815,31100.0,18400.0,1434.0,485.89591437825857
199643,Shaw University,29224.0,35.771181,-78.637693,25100.0,16700.0,912.0,552.9922590746557
199209,North Carolina Wesleyan College,40329.0,36.019665,-77.77398199999999,34800.0,23500.0,595.0,963.4060724866756
198969,Methodist University,50564.0,35.135058,-78.874426,32800.0,19500.0,727.0,723.214968013477
188429,Adelphi University,47647.0,40.721439000000004,-73.65332099999999,49400.0,30800.0,1743.0,737.7377773385675
190983,Elmira College,52741.0,42.0961,-76.813459,36800.0,20000.0,521.0,876.215908676647
190549,CUNY Brooklyn College,17848.0,40.631516999999995,-73.949898,36900.0,33000.0,3473.0,559.9658580353582
191649,Hofstra University,55322.0,40.715959000000005,-73.60078,42800.0,26300.0,2516.0,524.3248365100017
192323,Le Moyne College,45349.0,43.049192,-76.090435,42200.0,26700.0,931.0,875.057156334857
192439,LIU Brooklyn,45269.0,40.690677,-73.98112900000001,41500.0,34300.0,3976.0,543.9649688389352
195243,St. Thomas Aquinas College,41950.0,41.041576,-73.936799,36400.0,21200.0,501.0,947.146149410593
196033,SUNY College of Agriculture and Technology at Cobleskill,22766.0,42.672534000000006,-74.49825799999999,29700.0,18800.0,1580.0,472.96532910102997
194310,Pace University-New York,58188.0,40.711014,-74.004719,47400.0,32600.0,2596.0,639.8309676627706
196149,SUNY Cortland,23798.0,42.598022,-76.18865500000001,38100.0,21000.0,2092.0,459.1329429189573
196246,SUNY College at Plattsburgh,22718.0,44.69293,-73.466536,34800.0,19200.0,2150.0,414.0778491012035
197869,Appalachian State University,18397.0,36.215536,-81.680583,34300.0,26200.0,3832.0,423.2417886870612
196413,Syracuse University,61070.0,43.040176,-76.136975,48700.0,36100.0,3469.0,612.9217769349584
199069,University of Mount Olive,27531.0,35.208166,-78.069388,38000.0,29100.0,1491.0,753.6230397995408
198419,Duke University,67005.0,36.001135,-78.937624,93200.0,78900.0,1385.0,2120.079352782311
199193,North Carolina State University at Raleigh,22226.0,35.785111,-78.67451700000001,45000.0,32500.0,5094.0,455.35896435163176
198899,Mars Hill University,39206.0,35.82752,-82.551827,30400.0,36800.0,533.0,1593.9849411130926
198613,Guilford College,47558.0,36.094233,-79.887737,32700.0,22800.0,978.0,729.0636065058304
200800,University of Akron Main Campus,23039.0,41.078551000000004,-81.511679,33900.0,21300.0,6292.0,268.52532226357687
200253,Minot State University,15072.0,48.246961,-101.29861,38300.0,24200.0,850.0,830.0531520897428
207500,University of Oklahoma-Norman Campus,25085.0,35.209407,-97.444211,48600.0,37800.0,5231.0,522.636142612161
186876,Stockton University,27490.0,39.492036,-74.531087,37300.0,22100.0,2447.0,446.761035640865
190600,CUNY John Jay College of Criminal Justice,16540.0,40.770351,-73.98841,33800.0,21900.0,4028.0,345.0637866856318
192749,Manhattanville College,48887.0,41.032187,-73.715645,39500.0,24400.0,560.0,1031.0881907687901
192819,Marist College,50529.0,41.720937,-73.935484,48200.0,26700.0,1472.0,695.9168569154871
191676,Houghton College,40840.0,42.426137,-78.155426,33300.0,20800.0,482.0,947.414038842496
193353,Mount Saint Mary College,42529.0,41.513872,-74.01265500000001,42900.0,24500.0,774.0,880.6343144947471
195720,Saint John Fisher College,43779.0,43.116259,-77.513056,43400.0,24900.0,1117.0,745.0282841181795
193973,Niagara University,42261.0,43.137279,-79.036689,37000.0,19400.0,1151.0,571.826223808054
196176,State University of New York at New Paltz,22520.0,41.740936,-74.082188,36000.0,22000.0,1784.0,520.8650961914162
196219,SUNY at Purchase College,25310.0,41.047222999999995,-73.701955,31300.0,22800.0,1254.0,643.8520439863918
198303,Chowan University,33884.0,36.436258,-77.099141,26300.0,16400.0,551.0,698.6634894613802
198756,Johnson C Smith University,32001.0,35.243033000000004,-80.857251,26200.0,15700.0,749.0,573.6655147648677
199120,University of North Carolina at Chapel Hill,24327.0,35.911769,-79.050969,49900.0,55600.0,2818.0,1047.3800494865538
199139,University of North Carolina at Charlotte,19723.0,35.306022,-80.730919,38600.0,23100.0,5823.0,302.71823657873927
198516,Elon University,46508.0,36.104147999999995,-79.50344,47100.0,35000.0,865.0,1190.0357016065805
198543,Fayetteville State University,15066.0,35.073640999999995,-78.891696,27500.0,18600.0,1577.0,468.3786576042675
199306,Pfeiffer University,39989.0,35.484696,-80.283168,35700.0,22500.0,441.0,1071.4285714285713
201690,Central State University,18643.0,39.715787,-83.880186,23000.0,14500.0,1006.0,457.160829311588
199999,Winston-Salem State University,18738.0,36.089554,-80.225033,31600.0,20500.0,2031.0,454.8821545140263
200059,Dickinson State University,14720.0,46.882917,-102.799679,42300.0,28500.0,760.0,1033.8036564067665
157289,University of Louisville,24768.0,38.216862,-85.760412,38200.0,30200.0,3399.0,518.0019094838269
159993,University of Louisiana at Monroe,18491.0,32.527747999999995,-92.07374,38100.0,31200.0,1997.0,698.1770382683376
160630,Southern University at New Orleans,11515.0,30.026162,-90.044912,26800.0,17200.0,770.0,619.8449743345445
163286,University of Maryland-College Park,24041.0,38.988178000000005,-76.944721,50100.0,34500.0,5486.0,465.79110787923554
161226,University of Maine at Farmington,21538.0,44.666911,-70.147121,27700.0,14300.0,746.0,523.5601985458219
179043,Rockhurst University,48082.0,39.032318,-94.573003,44100.0,23900.0,537.0,1031.3611262850263
179566,Missouri State University-Springfield,20296.0,37.199258,-93.281281,34300.0,20200.0,4608.0,297.5741037493388
179159,Saint Louis University,54698.0,38.636801,-90.2351,47000.0,26300.0,1901.0,603.2046628914889
178369,Missouri Valley College,32975.0,39.108522,-93.19065400000001,29700.0,18400.0,722.0,684.7770933596039
178396,University of Missouri-Columbia,23962.0,38.94531,-92.328843,42700.0,31800.0,6160.0,405.16951719291234
178420,University of Missouri-St Louis,22105.0,38.710312,-90.311091,38700.0,24300.0,2954.0,447.0962508779133
182980,New England College,48441.0,43.176403,-71.822282,31700.0,20500.0,420.0,1000.2975747722465
183026,Southern New Hampshire University,43897.0,43.038922,-71.451842,43300.0,29300.0,1915.0,669.5503342770791
182290,University of Nevada-Reno,20702.0,39.543642,-119.815377,41600.0,32900.0,2426.0,667.9600671281357
183080,Plymouth State University,26971.0,43.759572999999996,-71.690164,35100.0,19400.0,1697.0,470.93482678431593
128106,Colorado State University-Pueblo,19561.0,38.30859,-104.579033,39100.0,27500.0,1876.0,634.916007741964
130493,Southern Connecticut State University,21029.0,41.333225,-72.947897,38800.0,22600.0,2346.0,466.5996785436637
130776,Western Connecticut State University,23264.0,41.400365,-73.444264,37800.0,22500.0,1560.0,569.6658939845626
135726,University of Miami,59833.0,25.72126,-80.278662,54500.0,56500.0,2015.0,1258.667222175369
138293,Webber International University,39199.0,27.838778,-81.532315,31900.0,22000.0,353.0,1170.941849907169
137476,St Thomas University,37714.0,25.922071,-80.253273,44600.0,34800.0,479.0,1590.0525850996394
146676,Lincoln College,29402.0,40.155442,-89.36153,24900.0,16500.0,905.0,548.4785586344902
146719,Loyola University Chicago,54324.0,42.000765,-87.65687199999999,45200.0,27600.0,2791.0,522.4312702195274
147703,Northern Illinois University,28725.0,41.933869,-88.766428,39400.0,24500.0,6271.0,309.3838816459143
147776,Northeastern Illinois University,23097.0,41.980399,-87.718983,35200.0,22500.0,2360.0,463.1551703958478
147013,McKendree University,40195.0,38.608154,-89.816822,39200.0,23900.0,812.0,838.7255755805977
150136,Ball State University,23157.0,40.203431,-85.40904300000001,35300.0,19200.0,5479.0,259.38841684612765
150163,Butler University,52071.0,39.8374,-86.172167,55000.0,45200.0,1015.0,1418.7484944980185
147660,North Central College,46799.0,41.77576,-88.14279,39300.0,20500.0,963.0,660.6032675145368
147679,North Park University,34232.0,41.975268,-87.709948,40300.0,36300.0,830.0,1259.9913941186312
151290,Indiana Institute of Technology,37135.0,41.078365000000005,-85.116479,38300.0,24400.0,1254.0,689.0346435643842
152099,Oakland City University,36221.0,38.340891,-87.35144,30700.0,20100.0,316.0,1130.713340430654
151360,Indiana University-Northwest,14022.0,41.557324,-87.337249,33500.0,23700.0,1394.0,634.7708270466125
151379,Indiana University-Southeast,16760.0,38.345191,-85.819985,32800.0,20300.0,1718.0,489.76129226318153
151263,University of Indianapolis,39236.0,39.709571000000004,-86.133969,38300.0,21900.0,1320.0,602.7776614066825
152266,Purdue University-North Central Campus,14017.0,41.582527,-86.893713,34500.0,23600.0,1205.0,679.8584182604993
152336,University of Saint Francis-Fort Wayne,35524.0,41.087205,-85.177246,36200.0,18900.0,762.0,684.6747604220965
151786,Marian University,43723.0,39.813233000000004,-86.20264300000001,41400.0,25100.0,806.0,884.1097918638154
154350,Simpson College,46428.0,41.365503000000004,-93.56347099999999,40000.0,23100.0,718.0,862.0843433456977
154493,Upper Iowa University,39962.0,42.838283000000004,-91.799543,41200.0,25000.0,2189.0,534.3393131699216
154013,Mount Mercy University,41055.0,42.001931,-91.650991,43600.0,21100.0,661.0,820.6948828715567
153269,Drake University,47759.0,41.601290000000006,-93.652163,54300.0,34300.0,1090.0,1038.9170437783814
153366,Graceland University-Lamoni,38444.0,40.615966,-93.92489300000001,41400.0,34300.0,592.0,1409.7213161434388
155399,Kansas State University,21989.0,39.188648,-96.58107700000001,41400.0,27000.0,5086.0,378.5956208424984
154590,William Penn University,35236.0,41.310111,-92.647095,36900.0,30900.0,876.0,1044.0142496272058
156189,Alice Lloyd College,23289.0,37.335087,-82.875068,28400.0,19800.0,218.0,1341.025213727621
155089,Friends University,34046.0,37.678459000000004,-97.367048,42300.0,28100.0,1069.0,859.4437690402955
156286,Bellarmine University,51346.0,38.219279,-85.70499699999999,43100.0,21700.0,728.0,804.2555085772948
155900,Southwestern College,39130.0,37.248608000000004,-96.97540500000001,41200.0,26900.0,593.0,1104.6506013650294
157863,Union College,35838.0,36.870875,-83.88847700000001,28800.0,17400.0,405.0,864.6129512999187
156620,Eastern Kentucky University,19584.0,37.740845,-84.30079599999999,32700.0,22900.0,4259.0,350.8986216645436
157100,Kentucky Christian University,31003.0,38.338805,-82.945561,29900.0,18200.0,289.0,1070.5882352941176
157386,Morehead State University,19454.0,38.186768,-83.434021,30000.0,28500.0,2314.0,592.4656593223202
100706,University of Alabama in Huntsville,22059.0,34.724557,-86.640449,40300.0,25200.0,1378.0,678.8532976348604
102553,University of Alaska Anchorage,18379.0,61.190163,-149.82619,41500.0,30300.0,2632.0,590.6084905059787
104179,University of Arizona,24633.0,32.232671999999994,-110.95081499999999,41800.0,29200.0,6520.0,361.6255053711911
